<?xml version="1.0" encoding="UTF-8"?>
<kml><Placemark><address>Stuttgart</address><description></description><name>Kommentar</name><Point><coordinates>9.177017,48.782326,0</coordinates></Point><TimeStamp><when>2009</when></TimeStamp></Placemark><Placemark><address>Stuttgart</address><description></description><name>Text</name><Point><coordinates>9.177017,48.782326,0</coordinates></Point><TimeStamp><when>2009</when></TimeStamp></Placemark><Placemark><address>Stuttgart</address><description></description><name>Der Briefwechsel</name><Point><coordinates>9.177017,48.782326,0</coordinates></Point><TimeStamp><when>2009</when></TimeStamp></Placemark><Placemark><address>Frankfurt am Main</address><description></description><name>Faust. Eine Tragödie ; (Faust I)</name><Point><coordinates>8.683333,50.116665,0</coordinates></Point><TimeStamp><when>2009</when></TimeStamp></Placemark><Placemark><address>Berlin</address><description></description><name>Kommentar</name><Point><coordinates>13.4,52.516666,0</coordinates></Point><TimeStamp><when>2009</when></TimeStamp></Placemark><Placemark><address>Berlin</address><description></description><name>Texte</name><Point><coordinates>13.4,52.516666,0</coordinates></Point><TimeStamp><when>2009</when></TimeStamp></Placemark><Placemark><address>Stuttgart</address><description></description><name>Text und Register</name><Point><coordinates>9.177017,48.782326,0</coordinates></Point><TimeStamp><when>2008</when></TimeStamp></Placemark><Placemark><address>Berlin</address><description></description><name>Kommentar</name><Point><coordinates>13.4,52.516666,0</coordinates></Point><TimeStamp><when>2008</when></TimeStamp></Placemark><Placemark><address>Berlin</address><description></description><name>Texte</name><Point><coordinates>13.4,52.516666,0</coordinates></Point><TimeStamp><when>2008</when></TimeStamp></Placemark><Placemark><address>Berlin</address><description></description><name>Briefe. Historisch-kritische Ausgabe</name><Point><coordinates>13.4,52.516666,0</coordinates></Point><TimeStamp><when>2008</when></TimeStamp></Placemark><Placemark><address>Weimar</address><description></description><name>Zeugnisse 1819 bis 1832. Überlieferungen, Erläuterungen, Anmerkungen,Register</name><Point><coordinates>11.316667,50.983334,0</coordinates></Point><TimeStamp><when>2007</when></TimeStamp></Placemark><Placemark><address>Weimar</address><description></description><name>Materialien und Zeugnisse bis 1818</name><Point><coordinates>11.316667,50.983334,0</coordinates></Point><TimeStamp><when>2007</when></TimeStamp></Placemark><Placemark><address>Stuttgart</address><description></description><name>Text</name><Point><coordinates>9.177017,48.782326,0</coordinates></Point><TimeStamp><when>2007</when></TimeStamp></Placemark><Placemark><address>São Paulo</address><description></description><name>/ il. de Max Beckmann</name><Point><coordinates>-46.636112,-23.5475,0</coordinates></Point><TimeStamp><when>2007</when></TimeStamp></Placemark><Placemark><address>Weimar</address><description></description><name>Kommentar, Literatur- und Abkürzungsverzeichnis, Register</name><Point><coordinates>11.316667,50.983334,0</coordinates></Point><TimeStamp><when>2005</when></TimeStamp></Placemark><Placemark><address>Weimar</address><description></description><name>Zur Meteorologie und Astronomie. Ergänzungen und Erläuterungen</name><Point><coordinates>11.316667,50.983334,0</coordinates></Point><TimeStamp><when>2005</when></TimeStamp></Placemark><Placemark><address>Weimar</address><description></description><name>Text</name><Point><coordinates>11.316667,50.983334,0</coordinates></Point><TimeStamp><when>2005</when></TimeStamp></Placemark><Placemark><address>Weimar</address><description></description><name>Goethes Briefwechsel mit seinem Sohn August. Mit Einleitung, Kommentar undRegister</name><Point><coordinates>11.316667,50.983334,0</coordinates></Point><TimeStamp><when>2005</when></TimeStamp></Placemark><Placemark><address>São Paulo</address><description></description><name>/ il. de Eugène Delacroix</name><Point><coordinates>-46.636112,-23.5475,0</coordinates></Point><TimeStamp><when>2004</when></TimeStamp></Placemark><Placemark><address>São Paulo</address><description></description><name>Fausto. Uma tragédia</name><Point><coordinates>-46.636112,-23.5475,0</coordinates></Point><TimeStamp><when>2004</when></TimeStamp></Placemark><Placemark><address>Stuttgart</address><description></description><name>Text</name><Point><coordinates>9.177017,48.782326,0</coordinates></Point><TimeStamp><when>2004</when></TimeStamp></Placemark><Placemark><address>Weimar</address><description></description><name>Überlieferung, Erläuterungen, Anmerkungen, Register</name><Point><coordinates>11.316667,50.983334,0</coordinates></Point><TimeStamp><when>2004</when></TimeStamp></Placemark><Placemark><address>Weimar</address><description></description><name>Materialien und Zeugnisse</name><Point><coordinates>11.316667,50.983334,0</coordinates></Point><TimeStamp><when>2004</when></TimeStamp></Placemark><Placemark><address>Göttingen</address><description></description><name>Edelsteine für die Seele. Ausgewählte Gedichte</name><Point><coordinates>9.933333,51.533333,0</coordinates></Point><TimeStamp><when>2004</when></TimeStamp></Placemark><Placemark><address>Frankfurt am Main</address><description></description><name>Texte</name><Point><coordinates>8.683333,50.116665,0</coordinates></Point><TimeStamp><when>2003</when></TimeStamp></Placemark><Placemark><address>Frankfurt am Main</address><description></description><name>Faust</name><Point><coordinates>8.683333,50.116665,0</coordinates></Point><TimeStamp><when>2003</when></TimeStamp></Placemark><Placemark><address>Stuttgart</address><description></description><name>Briefwechsel mit Johann Wolfgang von Goethe. Nebst ergänzenden Schreiben</name><Point><coordinates>9.177017,48.782326,0</coordinates></Point><TimeStamp><when>2003</when></TimeStamp></Placemark><Placemark><address>Weimar</address><description></description><name>Briefwechsel</name><Point><coordinates>11.316667,50.983334,0</coordinates></Point><TimeStamp><when>2002</when></TimeStamp></Placemark><Placemark><address>Göttingen</address><description></description><name>"Zarten Seelen ist gar viel gegönnt". Naturwissenschaft und Kunst imBriefwechsel zwischen C. G. Carus und Goethe</name><Point><coordinates>9.933333,51.533333,0</coordinates></Point><TimeStamp><when>2001</when></TimeStamp></Placemark><Placemark><address>Frankfurt am Main</address><description></description><name>Götz von Berlichingen mit der eisernen Hand. Ein Schauspiel 1773  ; [Textund Kommentar]</name><Point><coordinates>8.683333,50.116665,0</coordinates></Point><TimeStamp><when>2001</when></TimeStamp></Placemark><Placemark><address>Stuttgart</address><description></description><name>Gedichte</name><Point><coordinates>9.177017,48.782326,0</coordinates></Point><TimeStamp><when>2001</when></TimeStamp></Placemark><Placemark><address>Málaga</address><description></description><name>Ensayos sobre arte y literatura</name><Point><coordinates>-4.420345,36.720158,0</coordinates></Point><TimeStamp><when>2000</when></TimeStamp></Placemark><Placemark><address>Stuttgart</address><description></description><name>Text</name><Point><coordinates>9.177017,48.782326,0</coordinates></Point><TimeStamp><when>2000</when></TimeStamp></Placemark><Placemark><address>Milano</address><description></description><name>La forma delle nuvole e altri saggi di meteorologia</name><Point><coordinates>9.189506,45.464268,0</coordinates></Point><TimeStamp><when>2000</when></TimeStamp></Placemark><Placemark><address>Leipzig</address><description></description><name>Träume und Legenden meiner Jugend. Texte über die Stillen im Lande</name><Point><coordinates>12.371292,51.33962,0</coordinates></Point><TimeStamp><when>2000</when></TimeStamp></Placemark><Placemark><address>Buenos Aires</address><description></description><name>Fausto</name><Point><coordinates>-58.408813,-34.576126,0</coordinates></Point><TimeStamp><when>1999</when></TimeStamp></Placemark><Placemark><address>Jakarta</address><description></description><name>Faust. Diterjemakhan dari bahasa Jerman oleh</name><Point><coordinates>106.829445,-6.174444,0</coordinates></Point><TimeStamp><when>1999</when></TimeStamp></Placemark><Placemark><address>Weimar</address><description></description><name>Ergänzungen und Erläuterungen. Überlieferung, Erläuterungen, Anmerkungen,Register</name><Point><coordinates>11.316667,50.983334,0</coordinates></Point><TimeStamp><when>1999</when></TimeStamp></Placemark><Placemark><address>Weimar</address><description></description><name>Ergänzungen und Erläuterungen . Materialien und Zeugnisse</name><Point><coordinates>11.316667,50.983334,0</coordinates></Point><TimeStamp><when>1999</when></TimeStamp></Placemark><Placemark><address>Neumünster</address><description></description><name>Briefe an Augusta Louise zu Stolberg. Goethes Briefe ins holsteinischeKloster Uetersen</name><Point><coordinates>9.983334,54.066666,0</coordinates></Point><TimeStamp><when>1999</when></TimeStamp></Placemark><Placemark><address>Stuttgart</address><description></description><name>Schriften zur Kunst und Literatur</name><Point><coordinates>9.177017,48.782326,0</coordinates></Point><TimeStamp><when>1999</when></TimeStamp></Placemark><Placemark><address>Weimar</address><description></description><name>Leiden des jungen Werthers. Edition der Handschrift von 1786</name><Point><coordinates>11.316667,50.983334,0</coordinates></Point><TimeStamp><when>1999</when></TimeStamp></Placemark><Placemark><address>Frankfurt am Main</address><description></description><name>Bezüge nach aussen. Übersetzungen II, Bearbeitungen</name><Point><coordinates>8.683333,50.116665,0</coordinates></Point><TimeStamp><when>1999</when></TimeStamp></Placemark><Placemark><address>Frankfurt am Main</address><description></description><name>1816 - 1820. über Kunst und Altertum I - II</name><Point><coordinates>8.683333,50.116665,0</coordinates></Point><TimeStamp><when>1999</when></TimeStamp></Placemark><Placemark><address>Frankfurt am Main</address><description></description><name>Venezianische Epigramme. Eigenhändige Niederschriften, Transkription undKommentar</name><Point><coordinates>8.683333,50.116665,0</coordinates></Point><TimeStamp><when>1999</when></TimeStamp></Placemark><Placemark><address>Würzburg</address><description></description><name>Goethes Biologie. Die wissenschaftlichen und die autobiographischen Texte</name><Point><coordinates>9.936111,49.787777,0</coordinates></Point><TimeStamp><when>1999</when></TimeStamp></Placemark><Placemark><address>Frankfurt am Main</address><description></description><name>Kommentare</name><Point><coordinates>8.683333,50.116665,0</coordinates></Point><TimeStamp><when>1999</when></TimeStamp></Placemark><Placemark><address>Frankfurt am Main</address><description></description><name>Texte</name><Point><coordinates>8.683333,50.116665,0</coordinates></Point><TimeStamp><when>1999</when></TimeStamp></Placemark><Placemark><address>Frankfurt am Main</address><description></description><name>Faust</name><Point><coordinates>8.683333,50.116665,0</coordinates></Point><TimeStamp><when>1999</when></TimeStamp></Placemark><Placemark><address>Berlin</address><description></description><name>1806 - 1808</name><Point><coordinates>13.4,52.516666,0</coordinates></Point><TimeStamp><when>1999</when></TimeStamp></Placemark><Placemark><address>Stuttgart</address><description></description><name>Texte</name><Point><coordinates>9.177017,48.782326,0</coordinates></Point><TimeStamp><when>1999</when></TimeStamp></Placemark><Placemark><address>Stuttgart</address><description></description><name>Faust-Dichtungen</name><Point><coordinates>9.177017,48.782326,0</coordinates></Point><TimeStamp><when>1999</when></TimeStamp></Placemark><Placemark><address>Stuttgart</address><description></description><name>Goethe gibt Auskunft. über sein Leben, sein Werk, seine Zeit</name><Point><coordinates>9.177017,48.782326,0</coordinates></Point><TimeStamp><when>1999</when></TimeStamp></Placemark><Placemark><address>Frankfurt am Main</address><description></description><name>Gedichte in Handschriften. Fünfzig Gedichte Goethes</name><Point><coordinates>8.683333,50.116665,0</coordinates></Point><TimeStamp><when>1999</when></TimeStamp></Placemark><Placemark><address>Frankfurt am Main</address><description></description><name>Vom 27. Oktober 1819 bis zum 26. Dezember 1822</name><Point><coordinates>8.683333,50.116665,0</coordinates></Point><TimeStamp><when>1999</when></TimeStamp></Placemark><Placemark><address>Frankfurt am Main</address><description></description><name>Vom 6. Juni 1816 bis zum 18. Oktober 1819</name><Point><coordinates>8.683333,50.116665,0</coordinates></Point><TimeStamp><when>1999</when></TimeStamp></Placemark><Placemark><address>Frankfurt am Main</address><description></description><name>Vom 1. Januar 1800 bis zum 9. Mai 1805</name><Point><coordinates>8.683333,50.116665,0</coordinates></Point><TimeStamp><when>1999</when></TimeStamp></Placemark><Placemark><address>Frankfurt am Main</address><description></description><name>Aufgabengebiete seit der Rückkehr aus Italien</name><Point><coordinates>8.683333,50.116665,0</coordinates></Point><TimeStamp><when>1999</when></TimeStamp></Placemark><Placemark><address>Frankfurt am Main</address><description></description><name>1824 - 1832. über Kunst und Altertum V - VI</name><Point><coordinates>8.683333,50.116665,0</coordinates></Point><TimeStamp><when>1999</when></TimeStamp></Placemark><Placemark><address>Frankfurt am Main</address><description></description><name>Die Leiden des jungen Werthers. Leipzig 1774 ; [Text und Kommentar]</name><Point><coordinates>8.683333,50.116665,0</coordinates></Point><TimeStamp><when>1998</when></TimeStamp></Placemark><Placemark><address>Darmstadt</address><description></description><name>Versepen. Schriften, Maximen und Reflexionen</name><Point><coordinates>8.649445,49.870556,0</coordinates></Point><TimeStamp><when>1998</when></TimeStamp></Placemark><Placemark><address>Darmstadt</address><description></description><name>Dichtung und Wahrheit</name><Point><coordinates>8.649445,49.870556,0</coordinates></Point><TimeStamp><when>1998</when></TimeStamp></Placemark><Placemark><address>Darmstadt</address><description></description><name>Die Leiden des jungen Werthers. Wilhelm Meisters Lehrjahre</name><Point><coordinates>8.649445,49.870556,0</coordinates></Point><TimeStamp><when>1998</when></TimeStamp></Placemark><Placemark><address>Darmstadt</address><description></description><name>Faust I und II. Die Wahlverwandtschaften</name><Point><coordinates>8.649445,49.870556,0</coordinates></Point><TimeStamp><when>1998</when></TimeStamp></Placemark><Placemark><address>Darmstadt</address><description></description><name>Dramen. Novellen</name><Point><coordinates>8.649445,49.870556,0</coordinates></Point><TimeStamp><when>1998</when></TimeStamp></Placemark><Placemark><address>Darmstadt</address><description></description><name>Gedichte. West-östlicher Divan</name><Point><coordinates>8.649445,49.870556,0</coordinates></Point><TimeStamp><when>1998</when></TimeStamp></Placemark><Placemark><address>Darmstadt</address><description></description><name>Werke</name><Point><coordinates>8.649445,49.870556,0</coordinates></Point><TimeStamp><when>1998</when></TimeStamp></Placemark><Placemark><address>München</address><description></description><name>West-östlicher Divan</name><Point><coordinates>11.575491,48.137432,0</coordinates></Point><TimeStamp><when>1998</when></TimeStamp></Placemark><Placemark><address>Frankfurt am Main</address><description></description><name>Sämtliche Werke, Briefe, Tagebücher und Schriften bis 1775. Bilder,Handschriften, Zeugnisse und Werke der Zeitgenossen ; Bildungsmuster derEpoche ; Kommentare. Chronik. Register</name><Point><coordinates>8.683333,50.116665,0</coordinates></Point><TimeStamp><when>1998</when></TimeStamp></Placemark><Placemark><address>Frankfurt am Main</address><description></description><name>Der junge Goethe. Sämtliche Werke, Briefe, Tagebücher und Schriften bis1775</name><Point><coordinates>8.683333,50.116665,0</coordinates></Point><TimeStamp><when>1998</when></TimeStamp></Placemark><Placemark><address>Frankfurt am Main</address><description></description><name>Der junge Goethe. Sämtliche Werke, Briefe, Tagebücher und Schriften bis1775</name><Point><coordinates>8.683333,50.116665,0</coordinates></Point><TimeStamp><when>1998</when></TimeStamp></Placemark><Placemark><address>Berlin</address><description></description><name>Johann Wolfgang Goethe - Briefe, Tagebücher, Gespräche</name><Point><coordinates>13.4,52.516666,0</coordinates></Point><TimeStamp><when>1998</when></TimeStamp></Placemark><Placemark><address>Frankfurt am Main</address><description></description><name>Vom 24. Juni 1794 bis zum 31. Dezember 1799</name><Point><coordinates>8.683333,50.116665,0</coordinates></Point><TimeStamp><when>1998</when></TimeStamp></Placemark><Placemark><address>Frankfurt am Main</address><description></description><name>Geheimes Consilium und andere bis zur Italienreise übernommeneAufgabengebiete</name><Point><coordinates>8.683333,50.116665,0</coordinates></Point><TimeStamp><when>1998</when></TimeStamp></Placemark><Placemark><address>Frankfurt am Main</address><description></description><name>1821 - 1824. über Kunst und Altertum III - IV</name><Point><coordinates>8.683333,50.116665,0</coordinates></Point><TimeStamp><when>1998</when></TimeStamp></Placemark><Placemark><address>Frankfurt am Main</address><description></description><name>1806 - 1815</name><Point><coordinates>8.683333,50.116665,0</coordinates></Point><TimeStamp><when>1998</when></TimeStamp></Placemark><Placemark><address>Frankfurt am Main</address><description></description><name>1771 - 1805</name><Point><coordinates>8.683333,50.116665,0</coordinates></Point><TimeStamp><when>1998</when></TimeStamp></Placemark><Placemark><address>Berlin</address><description></description><name>Johann Wolfgang Goethe - Werke</name><Point><coordinates>13.4,52.516666,0</coordinates></Point><TimeStamp><when>1998</when></TimeStamp></Placemark><Placemark><address>Frankfurt am Main</address><description></description><name>Leben des Benvenuto Cellini ; Übersetzungen I</name><Point><coordinates>8.683333,50.116665,0</coordinates></Point><TimeStamp><when>1998</when></TimeStamp></Placemark><Placemark><address>Rudolstadt</address><description></description><name>Goethe wandert</name><Point><coordinates>11.333333,50.716667,0</coordinates></Point><TimeStamp><when>1998</when></TimeStamp></Placemark><Placemark><address>Frankfurt</address><description></description><name>Goethe, Handzeichnungen. Die zweiundzwanzig Handzeichnungen von 1810 ; einZyklus von Johann Wolfgang Goethe</name><Point><coordinates>8.683333,50.116665,0</coordinates></Point><TimeStamp><when>1998</when></TimeStamp></Placemark><Placemark><address>Stuttgart</address><description></description><name>Text</name><Point><coordinates>9.177017,48.782326,0</coordinates></Point><TimeStamp><when>1998</when></TimeStamp></Placemark><Placemark><address>Stuttgart</address><description></description><name>Tagebücher. Historisch-kritische Ausgabe</name><Point><coordinates>9.177017,48.782326,0</coordinates></Point><TimeStamp><when>1998</when></TimeStamp></Placemark><Placemark><address>Moskva</address><description></description><name>Stichotvorenija</name><Point><coordinates>37.615555,55.752224,0</coordinates></Point><TimeStamp><when>1997</when></TimeStamp></Placemark><Placemark><address>Sofija</address><description></description><name>Faust. Tragedija ; părva i vtora  čast</name><Point><coordinates>23.324146,42.697514,0</coordinates></Point><TimeStamp><when>1997</when></TimeStamp></Placemark><Placemark><address>Halle</address><description></description><name>Johann Wolfgang von Goethe und Christian Gottfried Daniel Nees vonEsenbeck. Briefwechsel ; Vorabdruck der Texte</name><Point><coordinates>11.933333,51.483334,0</coordinates></Point><TimeStamp><when>1997</when></TimeStamp></Placemark><Placemark><address>München</address><description></description><name>@</name><Point><coordinates>11.575491,48.137432,0</coordinates></Point><TimeStamp><when>1997</when></TimeStamp></Placemark><Placemark><address>Weimar</address><description></description><name>Von 1806 bis 1820. Ergänzungen und Erläuterungen</name><Point><coordinates>11.316667,50.983334,0</coordinates></Point><TimeStamp><when>1997</when></TimeStamp></Placemark><Placemark><address>Mainz</address><description></description><name>Reise-Tagebuch 1786. (italienische Reise) ; [eine Publikation desArbeitskreises Selbständiger Kultur-Institute e.V. - AsKI, Bonn und derStiftung Weimarer Klassik, Weimar aus Anlaß der Eröffnung der vom AsKIgetragenen Casa di Goethe, Via del Corso, Rom]</name><Point><coordinates>8.2711115,50.0,0</coordinates></Point><TimeStamp><when>1997</when></TimeStamp></Placemark><Placemark><address>Rudolstadt</address><description></description><name>"Ich war heut glücklich im Zeichnen". Goethes Thüringer Ansichten</name><Point><coordinates>11.333333,50.716667,0</coordinates></Point><TimeStamp><when>1997</when></TimeStamp></Placemark><Placemark><address>Frankfurt am Main</address><description></description><name>Das erste Weimarer Jahrzehnt. Briefe, Tagebücher und Gespräche vom 7.November 1775 - 2. September 1786</name><Point><coordinates>8.683333,50.116665,0</coordinates></Point><TimeStamp><when>1997</when></TimeStamp></Placemark><Placemark><address>Frankfurt am Main</address><description></description><name>Von Frankfurt nach Weimar. Briefe, Tagebücher und Gespräche vom 23. Mai1764 - 30. Oktober 1775</name><Point><coordinates>8.683333,50.116665,0</coordinates></Point><TimeStamp><when>1997</when></TimeStamp></Placemark><Placemark><address>München</address><description></description><name>Die Leiden des jungen Werthers. Leipzig 1774</name><Point><coordinates>11.575491,48.137432,0</coordinates></Point><TimeStamp><when>1997</when></TimeStamp></Placemark><Placemark><address>Paderborn</address><description></description><name>Die Leiden des jungen Werthers. Synoptischer Druck der beiden Fassungen1774 und 1787</name><Point><coordinates>8.754387,51.71905,0</coordinates></Point><TimeStamp><when>1997</when></TimeStamp></Placemark><Placemark><address>München</address><description></description><name>@</name><Point><coordinates>11.575491,48.137432,0</coordinates></Point><TimeStamp><when>1996</when></TimeStamp></Placemark><Placemark><address>Frankfurt am Main</address><description></description><name>Einführung, Transkription und Kommentar</name><Point><coordinates>8.683333,50.116665,0</coordinates></Point><TimeStamp><when>1996</when></TimeStamp></Placemark><Placemark><address>Frankfurt am Main</address><description></description><name>Handschriften</name><Point><coordinates>8.683333,50.116665,0</coordinates></Point><TimeStamp><when>1996</when></TimeStamp></Placemark><Placemark><address>Frankfurt am Main</address><description></description><name>West-östlicher Divan. Eigenhändige Niederschriften</name><Point><coordinates>8.683333,50.116665,0</coordinates></Point><TimeStamp><when>1996</when></TimeStamp></Placemark><Placemark><address>Montreuil</address><description></description><name>Histoire de Gottfried von Berlichingen à la main de fer, mise en drame</name><Point><coordinates>2.4333334,48.866665,0</coordinates></Point><TimeStamp><when>1996</when></TimeStamp></Placemark><Placemark><address>Köln</address><description></description><name>Goethe-Zitate für Juristen. Aus Rechtsstudium, Advokatur, Staatsdienst,Rechts- und Lebensweisheit des Dichterjuristen</name><Point><coordinates>6.95,50.933334,0</coordinates></Point><TimeStamp><when>1996</when></TimeStamp></Placemark><Placemark><address>Frankfurt am Main</address><description></description><name>Kommentare</name><Point><coordinates>8.683333,50.116665,0</coordinates></Point><TimeStamp><when>1995</when></TimeStamp></Placemark><Placemark><address>Frankfurt am Main</address><description></description><name>Texte</name><Point><coordinates>8.683333,50.116665,0</coordinates></Point><TimeStamp><when>1995</when></TimeStamp></Placemark><Placemark><address>Stuttgart</address><description></description><name>Tagebücher. 1. Januar bis 15. November 1777 ; Reise-Tagebuch 1786 ; erstesStück ; Text und Kommentar</name><Point><coordinates>9.177017,48.782326,0</coordinates></Point><TimeStamp><when>1995</when></TimeStamp></Placemark><Placemark><address>Weimar</address><description></description><name>Von 1816 bis 1824</name><Point><coordinates>11.316667,50.983334,0</coordinates></Point><TimeStamp><when>1995</when></TimeStamp></Placemark><Placemark><address>München</address><description></description><name>Schriften zur Kunst, Schriften zur Literatur, Maximen und Reflexionen</name><Point><coordinates>11.575491,48.137432,0</coordinates></Point><TimeStamp><when>1994</when></TimeStamp></Placemark><Placemark><address>Frankfurt am Main</address><description></description><name>Tag- und Jahreshefte</name><Point><coordinates>8.683333,50.116665,0</coordinates></Point><TimeStamp><when>1994</when></TimeStamp></Placemark><Placemark><address>Frankfurt am Main</address><description></description><name>Kommentare</name><Point><coordinates>8.683333,50.116665,0</coordinates></Point><TimeStamp><when>1994</when></TimeStamp></Placemark><Placemark><address>Frankfurt am Main</address><description></description><name>Texte</name><Point><coordinates>8.683333,50.116665,0</coordinates></Point><TimeStamp><when>1994</when></TimeStamp></Placemark><Placemark><address>Stuttgart</address><description></description><name>Die Metamorphose des Granits. Substanz- und Gestaltbildung desErdorganismus</name><Point><coordinates>9.177017,48.782326,0</coordinates></Point><TimeStamp><when>1994</when></TimeStamp></Placemark><Placemark><address>Frankfurt am Main</address><description></description><name>Campagne in Frankreich. Belagerung von Mainz. Reiseschriften</name><Point><coordinates>8.683333,50.116665,0</coordinates></Point><TimeStamp><when>1994</when></TimeStamp></Placemark><Placemark><address>Frankfurt am Main</address><description></description><name>Die Leiden des jungen Werthers. Die Wahlverwandtschaften. Kleine Prosa.Epen</name><Point><coordinates>8.683333,50.116665,0</coordinates></Point><TimeStamp><when>1994</when></TimeStamp></Placemark><Placemark><address>Frankfurt am Main</address><description></description><name>Von 1812 bis zu Christianes Tod</name><Point><coordinates>8.683333,50.116665,0</coordinates></Point><TimeStamp><when>1994</when></TimeStamp></Placemark><Placemark><address>Stuttgart</address><description></description><name>Die Leiden des jungen Werther</name><Point><coordinates>9.177017,48.782326,0</coordinates></Point><TimeStamp><when>1993</when></TimeStamp></Placemark><Placemark><address>Rudolstadt</address><description></description><name>"Untadeliche Schönheit". Kommentarbd. zum Rudolstädter Faks. von JohannWolfgang Goethe: "Das Römische Carneval"</name><Point><coordinates>11.333333,50.716667,0</coordinates></Point><TimeStamp><when>1993</when></TimeStamp></Placemark><Placemark><address>Rudolstadt</address><description></description><name>Das römische Carneval</name><Point><coordinates>11.333333,50.716667,0</coordinates></Point><TimeStamp><when>1993</when></TimeStamp></Placemark><Placemark><address>Frankfurt am Main</address><description></description><name>Goethes Briefe an Auguste Gräfin zu Stolberg aus der ehemaligen SammlungBrockhaus</name><Point><coordinates>8.683333,50.116665,0</coordinates></Point><TimeStamp><when>1993</when></TimeStamp></Placemark><Placemark><address>Frankfurt am Main</address><description></description><name>Sprüche in Prosa. Sämtliche Maximen und Reflexionen</name><Point><coordinates>8.683333,50.116665,0</coordinates></Point><TimeStamp><when>1993</when></TimeStamp></Placemark><Placemark><address>Frankfurt am Main</address><description></description><name>Von Schillers Tod bis 1811</name><Point><coordinates>8.683333,50.116665,0</coordinates></Point><TimeStamp><when>1993</when></TimeStamp></Placemark><Placemark><address>München</address><description></description><name>@</name><Point><coordinates>11.575491,48.137432,0</coordinates></Point><TimeStamp><when>1993</when></TimeStamp></Placemark><Placemark><address>Frankfurt am Main</address><description></description><name>1791 - 1832</name><Point><coordinates>8.683333,50.116665,0</coordinates></Point><TimeStamp><when>1993</when></TimeStamp></Placemark><Placemark><address>Frankfurt am Main</address><description></description><name>Vom Dornburger Aufenthalt 1828 bis zum Tode</name><Point><coordinates>8.683333,50.116665,0</coordinates></Point><TimeStamp><when>1993</when></TimeStamp></Placemark><Placemark><address>Frankfurt am Main</address><description></description><name>Von 1823 bis zum Tode Carl Augusts 1828</name><Point><coordinates>8.683333,50.116665,0</coordinates></Point><TimeStamp><when>1993</when></TimeStamp></Placemark><Placemark><address>Wrocław</address><description></description><name>Faust</name><Point><coordinates>17.033333,51.1,0</coordinates></Point><TimeStamp><when>1992</when></TimeStamp></Placemark><Placemark><address>München</address><description></description><name>Italienische Reise</name><Point><coordinates>11.575491,48.137432,0</coordinates></Point><TimeStamp><when>1992</when></TimeStamp></Placemark><Placemark><address>München</address><description></description><name>@</name><Point><coordinates>11.575491,48.137432,0</coordinates></Point><TimeStamp><when>1992</when></TimeStamp></Placemark><Placemark><address>Weimar</address><description></description><name>Zur Farbenlehre. Polemischer Teil</name><Point><coordinates>11.316667,50.983334,0</coordinates></Point><TimeStamp><when>1992</when></TimeStamp></Placemark><Placemark><address>Frankfurt am Main</address><description></description><name>Goethe's Briefwechsel mit einem Kinde</name><Point><coordinates>8.683333,50.116665,0</coordinates></Point><TimeStamp><when>1992</when></TimeStamp></Placemark><Placemark><address>Frankfurt am Main</address><description></description><name>Verweile doch. 111 Gedichte mit Interpretationen</name><Point><coordinates>8.683333,50.116665,0</coordinates></Point><TimeStamp><when>1992</when></TimeStamp></Placemark><Placemark><address>Oldenburg</address><description></description><name>Goethe und Buttel. Briefwechsel 1827 ; textkritische und kommentierteAusgabe</name><Point><coordinates>8.2,53.166668,0</coordinates></Point><TimeStamp><when>1992</when></TimeStamp></Placemark><Placemark><address>Frankfurt am Main</address><description></description><name>Wilhelm Meisters theatralische Sendung. Wilhelm Meisters Lehrjahre.Unterhaltungen deutscher Ausgewanderten</name><Point><coordinates>8.683333,50.116665,0</coordinates></Point><TimeStamp><when>1992</when></TimeStamp></Placemark><Placemark><address>Stuttgart</address><description></description><name>Kommentar, Nachwort, Register</name><Point><coordinates>9.177017,48.782326,0</coordinates></Point><TimeStamp><when>1991</when></TimeStamp></Placemark><Placemark><address>Stuttgart</address><description></description><name>Text</name><Point><coordinates>9.177017,48.782326,0</coordinates></Point><TimeStamp><when>1991</when></TimeStamp></Placemark><Placemark><address>München</address><description></description><name>Trost bei Goethe. "Nichts ist groß als das Natürliche"</name><Point><coordinates>11.575491,48.137432,0</coordinates></Point><TimeStamp><when>1991</when></TimeStamp></Placemark><Placemark><address>Stuttgart</address><description></description><name>Aus meinem Leben. Dichtung und Wahrheit</name><Point><coordinates>9.177017,48.782326,0</coordinates></Point><TimeStamp><when>1991</when></TimeStamp></Placemark><Placemark><address>Augsburg</address><description></description><name>Lexikon der Goethe-Zitate</name><Point><coordinates>10.883333,48.366665,0</coordinates></Point><TimeStamp><when>1991</when></TimeStamp></Placemark><Placemark><address>Köln</address><description></description><name>Faust. Der Tragödie erster Teil</name><Point><coordinates>6.95,50.933334,0</coordinates></Point><TimeStamp><when>1991</when></TimeStamp></Placemark><Placemark><address>Frankfurt am Main</address><description></description><name>Elegie von Marienbad. Urschrift, September 1823</name><Point><coordinates>8.683333,50.116665,0</coordinates></Point><TimeStamp><when>1991</when></TimeStamp></Placemark><Placemark><address>Frankfurt am Main</address><description></description><name>Goethe in Leipzig. 1765 - 1768 ; Bruchstücke einer Konfession ;dokumentiert in Briefen und Selbstzeugnissen</name><Point><coordinates>8.683333,50.116665,0</coordinates></Point><TimeStamp><when>1991</when></TimeStamp></Placemark><Placemark><address>Frankfurt am Main</address><description></description><name>Italien - im Schatten der Revolution. Briefe, Tagebücher und Gespräche vom3. September 1786 bis 12. Juni 1794</name><Point><coordinates>8.683333,50.116665,0</coordinates></Point><TimeStamp><when>1991</when></TimeStamp></Placemark><Placemark><address>Frankfurt am Main</address><description></description><name>Schriften zur Farbenlehre 1790 - 1807</name><Point><coordinates>8.683333,50.116665,0</coordinates></Point><TimeStamp><when>1991</when></TimeStamp></Placemark><Placemark><address>Frankfurt am Main</address><description></description><name>Zur Farbenlehre</name><Point><coordinates>8.683333,50.116665,0</coordinates></Point><TimeStamp><when>1991</when></TimeStamp></Placemark><Placemark><address>München</address><description></description><name>Wilhelm Meisters Wanderjahre. Maximen und Reflexionen</name><Point><coordinates>11.575491,48.137432,0</coordinates></Point><TimeStamp><when>1991</when></TimeStamp></Placemark><Placemark><address>München</address><description></description><name>Leben des Benvenuto Cellini, Diderots Versuch über die Malerei, RameausNeffe</name><Point><coordinates>11.575491,48.137432,0</coordinates></Point><TimeStamp><when>1991</when></TimeStamp></Placemark><Placemark><address>Weimar</address><description></description><name>Der Zeichner Goethe. 1788 - 1832</name><Point><coordinates>11.316667,50.983334,0</coordinates></Point><TimeStamp><when>1990</when></TimeStamp></Placemark><Placemark><address>Berlin</address><description></description><name>Das Tagebuch</name><Point><coordinates>13.4,52.516666,0</coordinates></Point><TimeStamp><when>1990</when></TimeStamp></Placemark><Placemark><address>Tübingen</address><description></description><name>Goethe, Werke. Nach der Hamburger Ausgabe</name><Point><coordinates>9.052219,48.52266,0</coordinates></Point><TimeStamp><when>1990</when></TimeStamp></Placemark><Placemark><address>München</address><description></description><name>Gesamtregister. [1764 - 1832]</name><Point><coordinates>11.575491,48.137432,0</coordinates></Point><TimeStamp><when>1990</when></TimeStamp></Placemark><Placemark><address>München</address><description></description><name>Nachträge 1768 - 1832, Erläuterungen</name><Point><coordinates>11.575491,48.137432,0</coordinates></Point><TimeStamp><when>1990</when></TimeStamp></Placemark><Placemark><address>München</address><description></description><name>Nachträge 1768-1832, Texte</name><Point><coordinates>11.575491,48.137432,0</coordinates></Point><TimeStamp><when>1990</when></TimeStamp></Placemark><Placemark><address>Zollikon</address><description></description><name>Der Zauberlehrling</name><Point><coordinates>8.574074,47.340195,0</coordinates></Point><TimeStamp><when>1990</when></TimeStamp></Placemark><Placemark><address>München</address><description></description><name>Gesamtregister</name><Point><coordinates>11.575491,48.137432,0</coordinates></Point><TimeStamp><when>1990</when></TimeStamp></Placemark><Placemark><address>München</address><description></description><name>Nachträge 1768 - 1832 ; Erläuterungen</name><Point><coordinates>11.575491,48.137432,0</coordinates></Point><TimeStamp><when>1990</when></TimeStamp></Placemark><Placemark><address>München</address><description></description><name>Nachträge 1768 - 1832 ; Texte</name><Point><coordinates>11.575491,48.137432,0</coordinates></Point><TimeStamp><when>1990</when></TimeStamp></Placemark><Placemark><address>München</address><description></description><name>Goethes Werke. Weimarer Ausgabe ; Nachträge u. Register zu Abt. 4, Briefe</name><Point><coordinates>11.575491,48.137432,0</coordinates></Point><TimeStamp><when>1990</when></TimeStamp></Placemark><Placemark><address>München</address><description></description><name>@</name><Point><coordinates>11.575491,48.137432,0</coordinates></Point><TimeStamp><when>1990</when></TimeStamp></Placemark><Placemark><address>München</address><description></description><name>@</name><Point><coordinates>11.575491,48.137432,0</coordinates></Point><TimeStamp><when>1990</when></TimeStamp></Placemark><Placemark><address>Frankfurt am Main</address><description></description><name>Goethe über das Mittelalter</name><Point><coordinates>8.683333,50.116665,0</coordinates></Point><TimeStamp><when>1990</when></TimeStamp></Placemark><Placemark><address>Chicago</address><description></description><name>Faust. Parts 1 and 2</name><Point><coordinates>-87.650055,41.850033,0</coordinates></Point><TimeStamp><when>1989</when></TimeStamp></Placemark><Placemark><address>Berlin</address><description></description><name>Venezianische Epigramme</name><Point><coordinates>13.4,52.516666,0</coordinates></Point><TimeStamp><when>1989</when></TimeStamp></Placemark><Placemark><address>München</address><description></description><name>Alphabetisches Inhaltsverzeichnis zu den bis 1989 erschienenen Bänden</name><Point><coordinates>11.575491,48.137432,0</coordinates></Point><TimeStamp><when>1989</when></TimeStamp></Placemark><Placemark><address>Frankfurt am Main</address><description></description><name>Mit Goethe durch den Garten. Ein ABC für Gartenfreunde</name><Point><coordinates>8.683333,50.116665,0</coordinates></Point><TimeStamp><when>1989</when></TimeStamp></Placemark><Placemark><address>Weimar</address><description></description><name>Zur Geologie und Mineralogie. Von den Anfängen bis 1805 ; Ergänzungen undErläuterungen</name><Point><coordinates>11.316667,50.983334,0</coordinates></Point><TimeStamp><when>1989</when></TimeStamp></Placemark><Placemark><address>Dresden</address><description></description><name>Der Tragödie zweiter Teil</name><Point><coordinates>13.7383175,51.05089,0</coordinates></Point><TimeStamp><when>1989</when></TimeStamp></Placemark><Placemark><address>Dresden</address><description></description><name>Der Tragödie erster Teil</name><Point><coordinates>13.7383175,51.05089,0</coordinates></Point><TimeStamp><when>1989</when></TimeStamp></Placemark><Placemark><address>Dresden</address><description></description><name>Faust</name><Point><coordinates>13.7383175,51.05089,0</coordinates></Point><TimeStamp><when>1989</when></TimeStamp></Placemark><Placemark><address>Frankfurt am Main</address><description></description><name>Schriften zur allgemeinen Naturlehre, Geologie und Mineralogie</name><Point><coordinates>8.683333,50.116665,0</coordinates></Point><TimeStamp><when>1989</when></TimeStamp></Placemark><Placemark><address>Frankfurt am Main</address><description></description><name>Wilhelm Meisters Wanderjahre</name><Point><coordinates>8.683333,50.116665,0</coordinates></Point><TimeStamp><when>1989</when></TimeStamp></Placemark><Placemark><address>München</address><description></description><name>Zur Naturwissenschaft überhaupt, besonders zur Morphologie. Erfahrung,Betrachtung, Folgerung, durch Lebensereignisse verbunden</name><Point><coordinates>11.575491,48.137432,0</coordinates></Point><TimeStamp><when>1989</when></TimeStamp></Placemark><Placemark><address>München</address><description></description><name>Zur Farbenlehre</name><Point><coordinates>11.575491,48.137432,0</coordinates></Point><TimeStamp><when>1989</when></TimeStamp></Placemark><Placemark><address>Frankfurt am Main</address><description></description><name>Römische Elegien. Faksimile der Handschrift</name><Point><coordinates>8.683333,50.116665,0</coordinates></Point><TimeStamp><when>1988</when></TimeStamp></Placemark><Placemark><address>München</address><description></description><name>Recension einer Anzahl französischer satyrischer Kupferstiche. Text, Bild,Kommentar</name><Point><coordinates>11.575491,48.137432,0</coordinates></Point><TimeStamp><when>1988</when></TimeStamp></Placemark><Placemark><address>Weimar</address><description></description><name>Goethe als Zeichner in Italien</name><Point><coordinates>11.316667,50.983334,0</coordinates></Point><TimeStamp><when>1988</when></TimeStamp></Placemark><Placemark><address>Frankfurt am Main</address><description></description><name>1776 - 1790</name><Point><coordinates>8.683333,50.116665,0</coordinates></Point><TimeStamp><when>1988</when></TimeStamp></Placemark><Placemark><address>Frankfurt am Main</address><description></description><name>1800 - 1832</name><Point><coordinates>8.683333,50.116665,0</coordinates></Point><TimeStamp><when>1988</when></TimeStamp></Placemark><Placemark><address>München</address><description></description><name>Wilhelm Meisters Lehrjahre. Ein Roman</name><Point><coordinates>11.575491,48.137432,0</coordinates></Point><TimeStamp><when>1988</when></TimeStamp></Placemark><Placemark><address>München</address><description></description><name>@</name><Point><coordinates>11.575491,48.137432,0</coordinates></Point><TimeStamp><when>1988</when></TimeStamp></Placemark><Placemark><address>Stuttgart</address><description></description><name>Briefwechsel 1784 - 1828</name><Point><coordinates>9.177017,48.782326,0</coordinates></Point><TimeStamp><when>1988</when></TimeStamp></Placemark><Placemark><address>Wien</address><description></description><name>Natur und Kunst. Graphik und Gedichte</name><Point><coordinates>16.372076,48.20849,0</coordinates></Point><TimeStamp><when>1987</when></TimeStamp></Placemark><Placemark><address>Frankfurt am Main</address><description></description><name>Unterhaltungen deutscher Ausgewanderten</name><Point><coordinates>8.683333,50.116665,0</coordinates></Point><TimeStamp><when>1987</when></TimeStamp></Placemark><Placemark><address>Weimar</address><description></description><name>Thüringer Zeichnungen. Aus den Beständen des Goethe-Nationalmuseums</name><Point><coordinates>11.316667,50.983334,0</coordinates></Point><TimeStamp><when>1987</when></TimeStamp></Placemark><Placemark><address>München</address><description></description><name>Supplement zur Weimarer Ausgabe im Deutschen Taschenbuch Verl.</name><Point><coordinates>11.575491,48.137432,0</coordinates></Point><TimeStamp><when>1987</when></TimeStamp></Placemark><Placemark><address>Frankfurt am Main</address><description></description><name>Schriften zur Morphologie</name><Point><coordinates>8.683333,50.116665,0</coordinates></Point><TimeStamp><when>1987</when></TimeStamp></Placemark><Placemark><address>Frankfurt am Main</address><description></description><name>1756 - 1799</name><Point><coordinates>8.683333,50.116665,0</coordinates></Point><TimeStamp><when>1987</when></TimeStamp></Placemark><Placemark><address>Weimar</address><description></description><name>Register</name><Point><coordinates>11.316667,50.983334,0</coordinates></Point><TimeStamp><when>1987</when></TimeStamp></Placemark><Placemark><address>München</address><description></description><name>Epoche der Wahlverwandtschaften. 1807 - 1814</name><Point><coordinates>11.575491,48.137432,0</coordinates></Point><TimeStamp><when>1987</when></TimeStamp></Placemark><Placemark><address>München</address><description></description><name>@</name><Point><coordinates>11.575491,48.137432,0</coordinates></Point><TimeStamp><when>1987</when></TimeStamp></Placemark><Placemark><address>München</address><description></description><name>@</name><Point><coordinates>11.575491,48.137432,0</coordinates></Point><TimeStamp><when>1987</when></TimeStamp></Placemark><Placemark><address>Hanau</address><description></description><name>Goethe-Zitate. Redensarten, Sprichwörter</name><Point><coordinates>8.916667,50.133335,0</coordinates></Point><TimeStamp><when>1986</when></TimeStamp></Placemark><Placemark><address>Berlin</address><description></description><name>Die nachgelassenen Werke und die Quartausgabe</name><Point><coordinates>13.4,52.516666,0</coordinates></Point><TimeStamp><when>1986</when></TimeStamp></Placemark><Placemark><address>New York</address><description></description><name>Essays on art and literature</name><Point><coordinates>-74.005974,40.714268,0</coordinates></Point><TimeStamp><when>1986</when></TimeStamp></Placemark><Placemark><address>Frankfurt am Main</address><description></description><name>Die guten Frauen als Gegenbilder der bösen Weiber</name><Point><coordinates>8.683333,50.116665,0</coordinates></Point><TimeStamp><when>1986</when></TimeStamp></Placemark><Placemark><address>Weimar</address><description></description><name>Von 1796 bis 1815. Ergänzungen und Erläuterungen</name><Point><coordinates>11.316667,50.983334,0</coordinates></Point><TimeStamp><when>1986</when></TimeStamp></Placemark><Placemark><address>Frankfurt am Main</address><description></description><name>Aus meinem Leben, Dichtung und Wahrheit</name><Point><coordinates>8.683333,50.116665,0</coordinates></Point><TimeStamp><when>1986</when></TimeStamp></Placemark><Placemark><address>München</address><description></description><name>Briefe der Jahre 1764 - 1786</name><Point><coordinates>11.575491,48.137432,0</coordinates></Point><TimeStamp><when>1986</when></TimeStamp></Placemark><Placemark><address>München</address><description></description><name>Autobiographische Schriften der frühen Zwanzigerjahre</name><Point><coordinates>11.575491,48.137432,0</coordinates></Point><TimeStamp><when>1986</when></TimeStamp></Placemark><Placemark><address>München</address><description></description><name>@</name><Point><coordinates>11.575491,48.137432,0</coordinates></Point><TimeStamp><when>1986</when></TimeStamp></Placemark><Placemark><address>Hamburg</address><description></description><name>Goethe an Cornelia. Die dreizehn Briefe an seine Schwester</name><Point><coordinates>10.0,53.55,0</coordinates></Point><TimeStamp><when>1986</when></TimeStamp></Placemark><Placemark><address>Zürich</address><description></description><name>Goethe in Venedig. Reiseberichte und Gedichte</name><Point><coordinates>8.55,47.366665,0</coordinates></Point><TimeStamp><when>1986</when></TimeStamp></Placemark><Placemark><address>Bonn</address><description></description><name>Wilhelm Meisters Wanderjahre oder die Entsagenden. Urfassung von 1821</name><Point><coordinates>7.1,50.733334,0</coordinates></Point><TimeStamp><when>1986</when></TimeStamp></Placemark><Placemark><address>Saarbrücken</address><description></description><name>Reisen zwischen Rhein und Saar</name><Point><coordinates>7.0,49.233334,0</coordinates></Point><TimeStamp><when>1986</when></TimeStamp></Placemark><Placemark><address>Freiburg im Breisgau</address><description></description><name>Schönheit wächst im Herzen</name><Point><coordinates>7.8522205,47.995895,0</coordinates></Point><TimeStamp><when>1985</when></TimeStamp></Placemark><Placemark><address>Frankfurt am Main</address><description></description><name>1765 - 1775</name><Point><coordinates>8.683333,50.116665,0</coordinates></Point><TimeStamp><when>1985</when></TimeStamp></Placemark><Placemark><address>Frankfurt am Main</address><description></description><name>Sämtliche Werke, Briefe, Tagebücher und Gespräche. Vierzig Bände</name><Point><coordinates>8.683333,50.116665,0</coordinates></Point><TimeStamp><when>1985</when></TimeStamp></Placemark><Placemark><address>Berlin</address><description></description><name>1800 - 1805</name><Point><coordinates>13.4,52.516666,0</coordinates></Point><TimeStamp><when>1985</when></TimeStamp></Placemark><Placemark><address>München</address><description></description><name>Aus meinem Leben. Dichtung und Wahrheit</name><Point><coordinates>11.575491,48.137432,0</coordinates></Point><TimeStamp><when>1985</when></TimeStamp></Placemark><Placemark><address>München</address><description></description><name>Sämtliche Werke nach Epochen seines Schaffens. Münchner Ausgabe</name><Point><coordinates>11.575491,48.137432,0</coordinates></Point><TimeStamp><when>1985</when></TimeStamp></Placemark><Placemark><address>Weimar</address><description></description><name>Von Zürich nach Weimar. Goethes Tagebuch ; 1775</name><Point><coordinates>11.316667,50.983334,0</coordinates></Point><TimeStamp><when>1985</when></TimeStamp></Placemark><Placemark><address>Weimar</address><description></description><name>Erlkönig</name><Point><coordinates>11.316667,50.983334,0</coordinates></Point><TimeStamp><when>1985</when></TimeStamp></Placemark><Placemark><address>Berlin</address><description></description><name>Die Einzeldrucke</name><Point><coordinates>13.4,52.516666,0</coordinates></Point><TimeStamp><when>1984</when></TimeStamp></Placemark><Placemark><address>Zürich</address><description></description><name>Goethe erzählt. Geschichten, Märchen, Schilderungen, Abenteuer u.Geständnisse</name><Point><coordinates>8.55,47.366665,0</coordinates></Point><TimeStamp><when>1984</when></TimeStamp></Placemark><Placemark><address>Cambridge</address><description></description><name>Faust I &amp; II</name><Point><coordinates>0.1166667,52.2,0</coordinates></Point><TimeStamp><when>1984</when></TimeStamp></Placemark><Placemark><address>Mainz</address><description></description><name>Goethes Faust</name><Point><coordinates>8.2711115,50.0,0</coordinates></Point><TimeStamp><when>1984</when></TimeStamp></Placemark><Placemark><address>Stuttgart</address><description></description><name>Enthüllung der Theorie Newtons</name><Point><coordinates>9.177017,48.782326,0</coordinates></Point><TimeStamp><when>1984</when></TimeStamp></Placemark><Placemark><address>Stuttgart</address><description></description><name>Vorarbeiten und Nachträge zur Farbenlehre</name><Point><coordinates>9.177017,48.782326,0</coordinates></Point><TimeStamp><when>1984</when></TimeStamp></Placemark><Placemark><address>Stuttgart</address><description></description><name>Entwurf einer Farbenlehre</name><Point><coordinates>9.177017,48.782326,0</coordinates></Point><TimeStamp><when>1984</when></TimeStamp></Placemark><Placemark><address>Darmstadt</address><description></description><name>Johann Wolfgang Goethe: Versuch einer Annäherung. Ringvorlesung an derTechnischen Hochschule Darmstadt im Sommersemester 1982 zum 150. Todestag vonJohann Wolfgang Goethe ; eine Dokumentation</name><Point><coordinates>8.649445,49.870556,0</coordinates></Point><TimeStamp><when>1984</when></TimeStamp></Placemark><Placemark><address>Frankfurt am Main</address><description></description><name>Das römische Carneval. Mit den farbigen Figurinen von 1789 und denFragmenten "Über Italien"</name><Point><coordinates>8.683333,50.116665,0</coordinates></Point><TimeStamp><when>1984</when></TimeStamp></Placemark><Placemark><address>Frankfurt am Main</address><description></description><name>Goethes Briefwechsel mit einem Kinde</name><Point><coordinates>8.683333,50.116665,0</coordinates></Point><TimeStamp><when>1984</when></TimeStamp></Placemark><Placemark><address>Berlin</address><description></description><name>Willkomm und Abschied. Gedichte des jungen Goethe</name><Point><coordinates>13.4,52.516666,0</coordinates></Point><TimeStamp><when>1984</when></TimeStamp></Placemark><Placemark><address>Frankfurt am Main</address><description></description><name>Goethe - warum?. Eine repräsentative Auslese aus Werken, Briefen undDokumenten</name><Point><coordinates>8.683333,50.116665,0</coordinates></Point><TimeStamp><when>1984</when></TimeStamp></Placemark><Placemark><address>Tallinn</address><description></description><name>Faust</name><Point><coordinates>24.753529,59.43696,0</coordinates></Point><TimeStamp><when>1983</when></TimeStamp></Placemark><Placemark><address>Frankfurt am Main</address><description></description><name>Briefe an Auguste Gräfin zu Stolberg</name><Point><coordinates>8.683333,50.116665,0</coordinates></Point><TimeStamp><when>1983</when></TimeStamp></Placemark><Placemark><address>Stuttgart</address><description></description><name>1816 - 1832</name><Point><coordinates>9.177017,48.782326,0</coordinates></Point><TimeStamp><when>1983</when></TimeStamp></Placemark><Placemark><address>Stuttgart</address><description></description><name>1797 - 1815</name><Point><coordinates>9.177017,48.782326,0</coordinates></Point><TimeStamp><when>1983</when></TimeStamp></Placemark><Placemark><address>Leer</address><description></description><name>Dat Speel vun Dokter Faust. Eine niederdeutsche Nachgestaltung von GoethesUrfaust ; mit Ergänzungen aus der Tragödie erstem Teil</name><Point><coordinates>7.4333334,53.233334,0</coordinates></Point><TimeStamp><when>1983</when></TimeStamp></Placemark><Placemark><address>Kehl</address><description></description><name>Goethe, Friederike und Sesenheim</name><Point><coordinates>27.333334,44.2,0</coordinates></Point><TimeStamp><when>1983</when></TimeStamp></Placemark><Placemark><address>Berlin</address><description></description><name>Die Ausgabe letzter Hand</name><Point><coordinates>13.4,52.516666,0</coordinates></Point><TimeStamp><when>1982</when></TimeStamp></Placemark><Placemark><address>Wiesbaden</address><description></description><name>Der Tragödie 2. Teil</name><Point><coordinates>8.25,50.083332,0</coordinates></Point><TimeStamp><when>1982</when></TimeStamp></Placemark><Placemark><address>Wiesbaden</address><description></description><name>Der Tragödie 1. Teil</name><Point><coordinates>8.25,50.083332,0</coordinates></Point><TimeStamp><when>1982</when></TimeStamp></Placemark><Placemark><address>Wiesbaden</address><description></description><name>Faust</name><Point><coordinates>8.25,50.083332,0</coordinates></Point><TimeStamp><when>1982</when></TimeStamp></Placemark><Placemark><address>Frankfurt am Main</address><description></description><name>Goethes Gedichte in zeitlicher Folge</name><Point><coordinates>8.683333,50.116665,0</coordinates></Point><TimeStamp><when>1982</when></TimeStamp></Placemark><Placemark><address>Berlin</address><description></description><name>Register zu Bd. 1 bis 6</name><Point><coordinates>13.4,52.516666,0</coordinates></Point><TimeStamp><when>1982</when></TimeStamp></Placemark><Placemark><address>Frankfurt am Main</address><description></description><name>Iphigenie auf Tauris. Prosa-Fassung</name><Point><coordinates>8.683333,50.116665,0</coordinates></Point><TimeStamp><when>1982</when></TimeStamp></Placemark><Placemark><address>München</address><description></description><name>West-östlicher Divan</name><Point><coordinates>11.575491,48.137432,0</coordinates></Point><TimeStamp><when>1982</when></TimeStamp></Placemark><Placemark><address>Weinheim</address><description></description><name>Goethe ist gut. Ein Goethe-Lesebuch für Kinder ausgestattet und bebildertmit Schattenrissen, Scherenschnitten, Stichen und anderen zeitgenössischenBildern ; im Anhang: Wie wertvoll ist eine Goethe-Locke?</name><Point><coordinates>8.666111,49.548332,0</coordinates></Point><TimeStamp><when>1982</when></TimeStamp></Placemark><Placemark><address>Berlin</address><description></description><name>Register zu Band 1-6</name><Point><coordinates>13.4,52.516666,0</coordinates></Point><TimeStamp><when>1982</when></TimeStamp></Placemark><Placemark><address>Berlin</address><description></description><name>Die Leiden des jungen Werther. Ein unklassischer Klassiker</name><Point><coordinates>13.4,52.516666,0</coordinates></Point><TimeStamp><when>1982</when></TimeStamp></Placemark><Placemark><address>Düsseldorf</address><description></description><name>Goethe und das Rheinland</name><Point><coordinates>6.776161,51.22172,0</coordinates></Point><TimeStamp><when>1982</when></TimeStamp></Placemark><Placemark><address>München</address><description></description><name>Schriften zur Biologie</name><Point><coordinates>11.575491,48.137432,0</coordinates></Point><TimeStamp><when>1982</when></TimeStamp></Placemark><Placemark><address>Frankfurt am Main</address><description></description><name>Johann Wolfgang Goethe zu Bildern</name><Point><coordinates>8.683333,50.116665,0</coordinates></Point><TimeStamp><when>1982</when></TimeStamp></Placemark><Placemark><address>München</address><description></description><name>Schriften zur Kunst, Schriften zur Literatur, Maximen und Reflexionen</name><Point><coordinates>11.575491,48.137432,0</coordinates></Point><TimeStamp><when>1981</when></TimeStamp></Placemark><Placemark><address>München</address><description></description><name>Schriften zur Kunst, Schriften zur Literatur, Maximen und Reflexionen</name><Point><coordinates>11.575491,48.137432,0</coordinates></Point><TimeStamp><when>1981</when></TimeStamp></Placemark><Placemark><address>Berlin</address><description></description><name>Venezianische Epigramme</name><Point><coordinates>13.4,52.516666,0</coordinates></Point><TimeStamp><when>1981</when></TimeStamp></Placemark><Placemark><address>Frankfurt am Main</address><description></description><name>Die Leiden des jungen Werther</name><Point><coordinates>8.683333,50.116665,0</coordinates></Point><TimeStamp><when>1981</when></TimeStamp></Placemark><Placemark><address>München</address><description></description><name>Goethes Werke. Hamburger Ausgabe in 14 Bänden</name><Point><coordinates>11.575491,48.137432,0</coordinates></Point><TimeStamp><when>1981</when></TimeStamp></Placemark><Placemark><address>Zürich</address><description></description><name>Der fünfte Akt von Goethes Faust II. Kommentierte kritische Ausg.</name><Point><coordinates>8.55,47.366665,0</coordinates></Point><TimeStamp><when>1981</when></TimeStamp></Placemark><Placemark><address>Marktredwitz</address><description></description><name>Joseph Sebastian Grüners Briefwechsel mit Goethe</name><Point><coordinates>12.081111,50.005,0</coordinates></Point><TimeStamp><when>1981</when></TimeStamp></Placemark><Placemark><address>Warszawa</address><description></description><name>Elegie rzymskie</name><Point><coordinates>21.0,52.25,0</coordinates></Point><TimeStamp><when>1980</when></TimeStamp></Placemark><Placemark><address>Wrocław</address><description></description><name>Herman i Dorota</name><Point><coordinates>17.033333,51.1,0</coordinates></Point><TimeStamp><when>1980</when></TimeStamp></Placemark><Placemark><address>Budapest</address><description></description><name>A műalkotások igazságáról és valószerűségéről. Válogatottképzőművészeti írások</name><Point><coordinates>19.083334,47.5,0</coordinates></Point><TimeStamp><when>1980</when></TimeStamp></Placemark><Placemark><address>Beograd</address><description></description><name>Faust</name><Point><coordinates>20.468056,44.81861,0</coordinates></Point><TimeStamp><when>1980</when></TimeStamp></Placemark><Placemark><address>Berlin</address><description></description><name>Überlieferung, Varianten und Paralipomena zu Band 2</name><Point><coordinates>13.4,52.516666,0</coordinates></Point><TimeStamp><when>1980</when></TimeStamp></Placemark><Placemark><address>Frankfurt am Main</address><description></description><name>Goethes letzte Schweizer Reise</name><Point><coordinates>8.683333,50.116665,0</coordinates></Point><TimeStamp><when>1980</when></TimeStamp></Placemark><Placemark><address>Tübingen</address><description></description><name>Novelle</name><Point><coordinates>9.052219,48.52266,0</coordinates></Point><TimeStamp><when>1980</when></TimeStamp></Placemark><Placemark><address>Berlin</address><description></description><name>1793 - 1799</name><Point><coordinates>13.4,52.516666,0</coordinates></Point><TimeStamp><when>1980</when></TimeStamp></Placemark><Placemark><address>Berlin</address><description></description><name>Überlieferung, Varianten und Paralipomena zu Band 2</name><Point><coordinates>13.4,52.516666,0</coordinates></Point><TimeStamp><when>1980</when></TimeStamp></Placemark><Placemark><address>Dortmund</address><description></description><name>Juristische Abhandlung über die Flöhe</name><Point><coordinates>7.45,51.516666,0</coordinates></Point><TimeStamp><when>1980</when></TimeStamp></Placemark><Placemark><address>Stuttgart</address><description></description><name>Enthüllung der Theorie Newtons</name><Point><coordinates>9.177017,48.782326,0</coordinates></Point><TimeStamp><when>1979</when></TimeStamp></Placemark><Placemark><address>Stuttgart</address><description></description><name>Vorarbeiten und Nachträge zur Farbenlehre</name><Point><coordinates>9.177017,48.782326,0</coordinates></Point><TimeStamp><when>1979</when></TimeStamp></Placemark><Placemark><address>Stuttgart</address><description></description><name>Entwurf einer Farbenlehre</name><Point><coordinates>9.177017,48.782326,0</coordinates></Point><TimeStamp><when>1979</when></TimeStamp></Placemark><Placemark><address>Stuttgart</address><description></description><name>Farbenlehre</name><Point><coordinates>9.177017,48.782326,0</coordinates></Point><TimeStamp><when>1979</when></TimeStamp></Placemark><Placemark><address>Stuttgart</address><description></description><name>Briefe. 1816 - 1832</name><Point><coordinates>9.177017,48.782326,0</coordinates></Point><TimeStamp><when>1979</when></TimeStamp></Placemark><Placemark><address>Stuttgart</address><description></description><name>Briefe. 1797 - 1815</name><Point><coordinates>9.177017,48.782326,0</coordinates></Point><TimeStamp><when>1979</when></TimeStamp></Placemark><Placemark><address>Stuttgart</address><description></description><name>Goethe und Cotta. Briefwechsel, 1797 - 1832 ; textkritische undkommentierte Ausgabe in drei Bänden</name><Point><coordinates>9.177017,48.782326,0</coordinates></Point><TimeStamp><when>1979</when></TimeStamp></Placemark><Placemark><address>München</address><description></description><name>Geliebte, Freundin. Goethes Briefe an Charlotte von Stein nachGroßkochberg ; nebst 17 unveröffentlichten Briefen der Amélie von Stein,geb. Seebach</name><Point><coordinates>11.575491,48.137432,0</coordinates></Point><TimeStamp><when>1979</when></TimeStamp></Placemark><Placemark><address>Frankfurt am Main</address><description></description><name>Novellen</name><Point><coordinates>8.683333,50.116665,0</coordinates></Point><TimeStamp><when>1979</when></TimeStamp></Placemark><Placemark><address>Marbach</address><description></description><name>Poetisches Werk und Handelszwang. Zur Ausgabe der Briefe zwischen Goetheund Cotta</name><Point><coordinates>9.259951,48.93964,0</coordinates></Point><TimeStamp><when>1979</when></TimeStamp></Placemark><Placemark><address>Frankfurt am Main</address><description></description><name>Reise-, Zerstreuungs- und Trost-Büchlein. 1806 - 1807</name><Point><coordinates>8.683333,50.116665,0</coordinates></Point><TimeStamp><when>1978</when></TimeStamp></Placemark><Placemark><address>Berlin</address><description></description><name>Abbildungen zu den Schriften zur bildenden Kunst</name><Point><coordinates>13.4,52.516666,0</coordinates></Point><TimeStamp><when>1978</when></TimeStamp></Placemark><Placemark><address>Berlin</address><description></description><name>Aufsätze</name><Point><coordinates>13.4,52.516666,0</coordinates></Point><TimeStamp><when>1978</when></TimeStamp></Placemark><Placemark><address>Berlin</address><description></description><name>Überlieferung, Varianten und Paralipomena zu Band 3</name><Point><coordinates>13.4,52.516666,0</coordinates></Point><TimeStamp><when>1978</when></TimeStamp></Placemark><Placemark><address>Berlin</address><description></description><name>Überlieferung, Varianten und Paralipomena zu Band 3</name><Point><coordinates>13.4,52.516666,0</coordinates></Point><TimeStamp><when>1978</when></TimeStamp></Placemark><Placemark><address>Dortmund</address><description></description><name>Reineke Fuchs</name><Point><coordinates>7.45,51.516666,0</coordinates></Point><TimeStamp><when>1978</when></TimeStamp></Placemark><Placemark><address>München</address><description></description><name>Leben und Welt in Briefen</name><Point><coordinates>11.575491,48.137432,0</coordinates></Point><TimeStamp><when>1978</when></TimeStamp></Placemark><Placemark><address>München</address><description></description><name>Italienische Reise</name><Point><coordinates>11.575491,48.137432,0</coordinates></Point><TimeStamp><when>1978</when></TimeStamp></Placemark><Placemark><address>München</address><description></description><name>Faust. [Goethes Faust-Dichtungen]</name><Point><coordinates>11.575491,48.137432,0</coordinates></Point><TimeStamp><when>1978</when></TimeStamp></Placemark><Placemark><address>Stuttgart</address><description></description><name>Goethe. Faust ; Kommentare</name><Point><coordinates>9.177017,48.782326,0</coordinates></Point><TimeStamp><when>1977</when></TimeStamp></Placemark><Placemark><address>Stuttgart</address><description></description><name>Goethe. Das bürgerliche Zeitalter</name><Point><coordinates>9.177017,48.782326,0</coordinates></Point><TimeStamp><when>1977</when></TimeStamp></Placemark><Placemark><address>Stuttgart</address><description></description><name>Goethe. 1749 bis 1832 ; Texte und Bilder</name><Point><coordinates>9.177017,48.782326,0</coordinates></Point><TimeStamp><when>1977</when></TimeStamp></Placemark><Placemark><address>Stuttgart</address><description></description><name>Faust. Der Tragödie zweiter Teil</name><Point><coordinates>9.177017,48.782326,0</coordinates></Point><TimeStamp><when>1977</when></TimeStamp></Placemark><Placemark><address>Stuttgart</address><description></description><name>Faust. Der Tragödie erster Teil</name><Point><coordinates>9.177017,48.782326,0</coordinates></Point><TimeStamp><when>1977</when></TimeStamp></Placemark><Placemark><address>Frankfurt am Main</address><description></description><name>West-östlicher Divan</name><Point><coordinates>8.683333,50.116665,0</coordinates></Point><TimeStamp><when>1977</when></TimeStamp></Placemark><Placemark><address>Weimar</address><description></description><name>Von den Anfängen bis 1795</name><Point><coordinates>11.316667,50.983334,0</coordinates></Point><TimeStamp><when>1977</when></TimeStamp></Placemark><Placemark><address>Berlin</address><description></description><name>Benvenuto Cellini</name><Point><coordinates>13.4,52.516666,0</coordinates></Point><TimeStamp><when>1977</when></TimeStamp></Placemark><Placemark><address>Berlin</address><description></description><name>1786 - 1792</name><Point><coordinates>13.4,52.516666,0</coordinates></Point><TimeStamp><when>1977</when></TimeStamp></Placemark><Placemark><address>Köln</address><description></description><name>Steuergutachten aus dem Jahre 1785</name><Point><coordinates>6.95,50.933334,0</coordinates></Point><TimeStamp><when>1977</when></TimeStamp></Placemark><Placemark><address>Berlin</address><description></description><name>Überlieferung, Varianten und Paralipomena zu Band 1</name><Point><coordinates>13.4,52.516666,0</coordinates></Point><TimeStamp><when>1976</when></TimeStamp></Placemark><Placemark><address>New York</address><description></description><name>Goethe's Faust. Part I</name><Point><coordinates>-74.005974,40.714268,0</coordinates></Point><TimeStamp><when>1976</when></TimeStamp></Placemark><Placemark><address>Berlin</address><description></description><name>Italienische Reise</name><Point><coordinates>13.4,52.516666,0</coordinates></Point><TimeStamp><when>1976</when></TimeStamp></Placemark><Placemark><address>Berlin</address><description></description><name>Italienische Reise</name><Point><coordinates>13.4,52.516666,0</coordinates></Point><TimeStamp><when>1976</when></TimeStamp></Placemark><Placemark><address>Berlin</address><description></description><name>Überlieferung, Varianten und Paralipomena zu Bd. 1</name><Point><coordinates>13.4,52.516666,0</coordinates></Point><TimeStamp><when>1976</when></TimeStamp></Placemark><Placemark><address>Moskva</address><description></description><name>Ob isskustve</name><Point><coordinates>37.615555,55.752224,0</coordinates></Point><TimeStamp><when>1975</when></TimeStamp></Placemark><Placemark><address>Hagen</address><description></description><name>Scene des Faust von Goethes eigener Hand 1800</name><Point><coordinates>7.4666667,51.35,0</coordinates></Point><TimeStamp><when>1975</when></TimeStamp></Placemark><Placemark><address>Hagen</address><description></description><name>Brocken-Scene des Faust von Goethe's eigener Hand 1800</name><Point><coordinates>7.4666667,51.35,0</coordinates></Point><TimeStamp><when>1975</when></TimeStamp></Placemark><Placemark><address>Hagen</address><description></description><name>Die Valentinszene und die Walpurgisnacht aus Faust I. Faksimile derHandschriften Ms. germ. qu. 475 und 527 der Staatsbibliothek PreußischerKulturbesitz in Berlin</name><Point><coordinates>7.4666667,51.35,0</coordinates></Point><TimeStamp><when>1975</when></TimeStamp></Placemark><Placemark><address>Berlin</address><description></description><name>Überlieferung, Varianten und Paralipomena</name><Point><coordinates>13.4,52.516666,0</coordinates></Point><TimeStamp><when>1975</when></TimeStamp></Placemark><Placemark><address>Berlin</address><description></description><name>Wilhelm Meisters Lehrjahre</name><Point><coordinates>13.4,52.516666,0</coordinates></Point><TimeStamp><when>1974</when></TimeStamp></Placemark><Placemark><address>Berlin</address><description></description><name>Die Laune des Verliebten</name><Point><coordinates>13.4,52.516666,0</coordinates></Point><TimeStamp><when>1974</when></TimeStamp></Placemark><Placemark><address>Frankfurt am Main</address><description></description><name>West-östlicher Divan</name><Point><coordinates>8.683333,50.116665,0</coordinates></Point><TimeStamp><when>1974</when></TimeStamp></Placemark><Placemark><address>Berlin</address><description></description><name>Schriften zu Kunst und Literatur</name><Point><coordinates>13.4,52.516666,0</coordinates></Point><TimeStamp><when>1974</when></TimeStamp></Placemark><Placemark><address>Berlin</address><description></description><name>Philosophische und naturwissenschaftliche Schriften</name><Point><coordinates>13.4,52.516666,0</coordinates></Point><TimeStamp><when>1974</when></TimeStamp></Placemark><Placemark><address>Berlin</address><description></description><name>Italienische Reise</name><Point><coordinates>13.4,52.516666,0</coordinates></Point><TimeStamp><when>1974</when></TimeStamp></Placemark><Placemark><address>Berlin</address><description></description><name>Aus meinem Leben. dichtung und Wahrheit, 3. und 4. Teil</name><Point><coordinates>13.4,52.516666,0</coordinates></Point><TimeStamp><when>1974</when></TimeStamp></Placemark><Placemark><address>Berlin</address><description></description><name>Aus meinem Leben. Dichtung und Wahrheit, 1. und 2. Teil</name><Point><coordinates>13.4,52.516666,0</coordinates></Point><TimeStamp><when>1974</when></TimeStamp></Placemark><Placemark><address>Berlin</address><description></description><name>Die natürliche Tochter</name><Point><coordinates>13.4,52.516666,0</coordinates></Point><TimeStamp><when>1974</when></TimeStamp></Placemark><Placemark><address>Berlin</address><description></description><name>Versepen</name><Point><coordinates>13.4,52.516666,0</coordinates></Point><TimeStamp><when>1974</when></TimeStamp></Placemark><Placemark><address>Lawrence</address><description></description><name>Roman elegies and Venetian epigrams. A bilingual text</name><Point><coordinates>-95.23525,38.97167,0</coordinates></Point><TimeStamp><when>1974</when></TimeStamp></Placemark><Placemark><address>Berlin</address><description></description><name>Die Leiden des jungen Werther</name><Point><coordinates>13.4,52.516666,0</coordinates></Point><TimeStamp><when>1974</when></TimeStamp></Placemark><Placemark><address>Berlin</address><description></description><name>Wilhelm Meisters Wanderjahre</name><Point><coordinates>13.4,52.516666,0</coordinates></Point><TimeStamp><when>1974</when></TimeStamp></Placemark><Placemark><address>Berlin</address><description></description><name>Goethes Werke. In zwölf Bänden</name><Point><coordinates>13.4,52.516666,0</coordinates></Point><TimeStamp><when>1974</when></TimeStamp></Placemark><Placemark><address>Köln</address><description></description><name>Steuergutachten aus dem Jahre 1785. Faksimiledruck</name><Point><coordinates>6.95,50.933334,0</coordinates></Point><TimeStamp><when>1974</when></TimeStamp></Placemark><Placemark><address>München</address><description></description><name>Gedichte</name><Point><coordinates>11.575491,48.137432,0</coordinates></Point><TimeStamp><when>1974</when></TimeStamp></Placemark><Placemark><address>Berlin</address><description></description><name>Aufsätze zur bildenden Kunst. (1812 - 1832)</name><Point><coordinates>13.4,52.516666,0</coordinates></Point><TimeStamp><when>1974</when></TimeStamp></Placemark><Placemark><address>Berlin</address><description></description><name>@</name><Point><coordinates>13.4,52.516666,0</coordinates></Point><TimeStamp><when>1974</when></TimeStamp></Placemark><Placemark><address>Hamburg</address><description></description><name>Goethe und das Elsass</name><Point><coordinates>10.0,53.55,0</coordinates></Point><TimeStamp><when>1973</when></TimeStamp></Placemark><Placemark><address>Weimar</address><description></description><name>Zur Farbenlehre. Didaktischer Teil und Tafeln</name><Point><coordinates>11.316667,50.983334,0</coordinates></Point><TimeStamp><when>1973</when></TimeStamp></Placemark><Placemark><address>Wiesbaden</address><description></description><name>Reineke Fuchs</name><Point><coordinates>8.25,50.083332,0</coordinates></Point><TimeStamp><when>1973</when></TimeStamp></Placemark><Placemark><address>Berlin</address><description></description><name>Aufsätze zur bildenden Kunst. (1772 - 1808)</name><Point><coordinates>13.4,52.516666,0</coordinates></Point><TimeStamp><when>1973</when></TimeStamp></Placemark><Placemark><address>Berlin</address><description></description><name>Faust</name><Point><coordinates>13.4,52.516666,0</coordinates></Point><TimeStamp><when>1973</when></TimeStamp></Placemark><Placemark><address>Berlin</address><description></description><name>Kleine Dramen. (1767 - 1788)</name><Point><coordinates>13.4,52.516666,0</coordinates></Point><TimeStamp><when>1973</when></TimeStamp></Placemark><Placemark><address>Berlin</address><description></description><name>West-östlicher Divan</name><Point><coordinates>13.4,52.516666,0</coordinates></Point><TimeStamp><when>1973</when></TimeStamp></Placemark><Placemark><address>Berlin</address><description></description><name>Gedichte. Nachlese und Nachlaß</name><Point><coordinates>13.4,52.516666,0</coordinates></Point><TimeStamp><when>1973</when></TimeStamp></Placemark><Placemark><address>Berlin</address><description></description><name>Text</name><Point><coordinates>13.4,52.516666,0</coordinates></Point><TimeStamp><when>1973</when></TimeStamp></Placemark><Placemark><address>Berlin</address><description></description><name>Januar - Oktober 1775</name><Point><coordinates>13.4,52.516666,0</coordinates></Point><TimeStamp><when>1973</when></TimeStamp></Placemark><Placemark><address>Leipzig</address><description></description><name>Die Zeugnisse</name><Point><coordinates>12.371292,51.33962,0</coordinates></Point><TimeStamp><when>1973</when></TimeStamp></Placemark><Placemark><address>Berlin</address><description></description><name>Text</name><Point><coordinates>13.4,52.516666,0</coordinates></Point><TimeStamp><when>1973</when></TimeStamp></Placemark><Placemark><address>Berlin</address><description></description><name>Italienische Reise</name><Point><coordinates>13.4,52.516666,0</coordinates></Point><TimeStamp><when>1972</when></TimeStamp></Placemark><Placemark><address>Berlin</address><description></description><name>Wilhelm Meisters Wanderjahre. Oder die Entsagenden</name><Point><coordinates>13.4,52.516666,0</coordinates></Point><TimeStamp><when>1972</when></TimeStamp></Placemark><Placemark><address>Berlin</address><description></description><name>Gedichte</name><Point><coordinates>13.4,52.516666,0</coordinates></Point><TimeStamp><when>1972</when></TimeStamp></Placemark><Placemark><address>Stuttgart</address><description></description><name>Campagne in Frankreich. Belagerung von Mainz</name><Point><coordinates>9.177017,48.782326,0</coordinates></Point><TimeStamp><when>1972</when></TimeStamp></Placemark><Placemark><address>Berlin</address><description></description><name>Aufsätze zur Weltliteratur</name><Point><coordinates>13.4,52.516666,0</coordinates></Point><TimeStamp><when>1972</when></TimeStamp></Placemark><Placemark><address>Berlin</address><description></description><name>Briefe aus der Schweiz 1779</name><Point><coordinates>13.4,52.516666,0</coordinates></Point><TimeStamp><when>1972</when></TimeStamp></Placemark><Placemark><address>Berlin</address><description></description><name>Die Wahlverwandtschaften</name><Point><coordinates>13.4,52.516666,0</coordinates></Point><TimeStamp><when>1972</when></TimeStamp></Placemark><Placemark><address>Berlin</address><description></description><name>Götz von Berlichingen</name><Point><coordinates>13.4,52.516666,0</coordinates></Point><TimeStamp><when>1972</when></TimeStamp></Placemark><Placemark><address>Weimar</address><description></description><name>Erläuterungen zu den Schriften der Jahre 1788 - 1819</name><Point><coordinates>11.316667,50.983334,0</coordinates></Point><TimeStamp><when>1972</when></TimeStamp></Placemark><Placemark><address>Berlin</address><description></description><name>Wilhelm Meisters Lehrjahre</name><Point><coordinates>13.4,52.516666,0</coordinates></Point><TimeStamp><when>1971</when></TimeStamp></Placemark><Placemark><address>Berlin</address><description></description><name>Aus meinem Leben. Dichtung und Wahrheit</name><Point><coordinates>13.4,52.516666,0</coordinates></Point><TimeStamp><when>1971</when></TimeStamp></Placemark><Placemark><address>Berlin</address><description></description><name>Die Leiden des jungen Werther</name><Point><coordinates>13.4,52.516666,0</coordinates></Point><TimeStamp><when>1971</when></TimeStamp></Placemark><Placemark><address>Zürich</address><description></description><name>Registerband. Personen und Orte, Goethe über seine Werke, Werkverzeichnis</name><Point><coordinates>8.55,47.366665,0</coordinates></Point><TimeStamp><when>1971</when></TimeStamp></Placemark><Placemark><address>Bern</address><description></description><name>Briefwechsel des Herzogs-Grossherzogs Carl August mit Goethe</name><Point><coordinates>-46.565,-23.69389,0</coordinates></Point><TimeStamp><when>1971</when></TimeStamp></Placemark><Placemark><address>Berlin</address><description></description><name>Text</name><Point><coordinates>13.4,52.516666,0</coordinates></Point><TimeStamp><when>1971</when></TimeStamp></Placemark><Placemark><address>Berlin</address><description></description><name>Text</name><Point><coordinates>13.4,52.516666,0</coordinates></Point><TimeStamp><when>1971</when></TimeStamp></Placemark><Placemark><address>Berlin</address><description></description><name>Erzählungen. Historisch-kritische Ausgabe</name><Point><coordinates>13.4,52.516666,0</coordinates></Point><TimeStamp><when>1971</when></TimeStamp></Placemark><Placemark><address>Leipzig</address><description></description><name>Nr. 1 - 285. Zeichnungen außerhalb der Goethe-Institute der NationalenForschungs- und Gedenkstätten der Klassischen Deutschen Literatur in Weimar ;Nachträge ; Berichtigungen zu C. I - VI A ; Abschreibungen ; Gesamtkonkordanz</name><Point><coordinates>12.371292,51.33962,0</coordinates></Point><TimeStamp><when>1971</when></TimeStamp></Placemark><Placemark><address>Berlin</address><description></description><name>Text</name><Point><coordinates>13.4,52.516666,0</coordinates></Point><TimeStamp><when>1971</when></TimeStamp></Placemark><Placemark><address>Ravensburg</address><description></description><name>Goethes Farbenlehre</name><Point><coordinates>9.616667,47.783333,0</coordinates></Point><TimeStamp><when>1971</when></TimeStamp></Placemark><Placemark><address>Berlin</address><description></description><name>Römische Elegien</name><Point><coordinates>13.4,52.516666,0</coordinates></Point><TimeStamp><when>1970</when></TimeStamp></Placemark><Placemark><address>Berlin</address><description></description><name>Text</name><Point><coordinates>13.4,52.516666,0</coordinates></Point><TimeStamp><when>1970</when></TimeStamp></Placemark><Placemark><address>Frankfurt am Main</address><description></description><name>Torquato Tasso. Regiebuch der Bremer Inszenierung</name><Point><coordinates>8.683333,50.116665,0</coordinates></Point><TimeStamp><when>1970</when></TimeStamp></Placemark><Placemark><address>München</address><description></description><name>Wilhelm Tischbeins Idyllen</name><Point><coordinates>11.575491,48.137432,0</coordinates></Point><TimeStamp><when>1970</when></TimeStamp></Placemark><Placemark><address>Weimar</address><description></description><name>Aufsätze, Fragmente, Studien zur Naturwissenschaft im allgemeinen</name><Point><coordinates>11.316667,50.983334,0</coordinates></Point><TimeStamp><when>1970</when></TimeStamp></Placemark><Placemark><address>Berlin</address><description></description><name>Aus meinem Leben. Dichtung und Wahrheit</name><Point><coordinates>13.4,52.516666,0</coordinates></Point><TimeStamp><when>1970</when></TimeStamp></Placemark><Placemark><address>Berlin</address><description></description><name>Aufsätze zu Schauspielkunst und Musik</name><Point><coordinates>13.4,52.516666,0</coordinates></Point><TimeStamp><when>1970</when></TimeStamp></Placemark><Placemark><address>Berlin</address><description></description><name>Text</name><Point><coordinates>13.4,52.516666,0</coordinates></Point><TimeStamp><when>1970</when></TimeStamp></Placemark><Placemark><address>Berlin</address><description></description><name>Schriften zur Literatur. Historisch-kritische Ausgabe</name><Point><coordinates>13.4,52.516666,0</coordinates></Point><TimeStamp><when>1970</when></TimeStamp></Placemark><Placemark><address>Weimar</address><description></description><name>Die Schriften der Jahre 1788 - 1819</name><Point><coordinates>11.316667,50.983334,0</coordinates></Point><TimeStamp><when>1970</when></TimeStamp></Placemark><Placemark><address>Leipzig</address><description></description><name>Nr. 1 - 302. Zeichnungen aus dem Bestande des Goethe- und Schiller-Archivsder Nationalen Forschungs- und Gedenkstätten der Klassischen DeutschenLiteratur in Weimar</name><Point><coordinates>12.371292,51.33962,0</coordinates></Point><TimeStamp><when>1970</when></TimeStamp></Placemark><Placemark><address>Bern</address><description></description><name>1828-1832</name><Point><coordinates>-46.565,-23.69389,0</coordinates></Point><TimeStamp><when>1970</when></TimeStamp></Placemark><Placemark><address>Bern</address><description></description><name>1819-1827</name><Point><coordinates>-46.565,-23.69389,0</coordinates></Point><TimeStamp><when>1970</when></TimeStamp></Placemark><Placemark><address>Bern</address><description></description><name>1799-1818</name><Point><coordinates>-46.565,-23.69389,0</coordinates></Point><TimeStamp><when>1970</when></TimeStamp></Placemark><Placemark><address>Berlin</address><description></description><name>Text</name><Point><coordinates>13.4,52.516666,0</coordinates></Point><TimeStamp><when>1970</when></TimeStamp></Placemark><Placemark><address>Berlin</address><description></description><name>Schriften zur Literatur. Historisch-kritische Ausgabe</name><Point><coordinates>13.4,52.516666,0</coordinates></Point><TimeStamp><when>1970</when></TimeStamp></Placemark><Placemark><address>Berlin</address><description></description><name>Novelle</name><Point><coordinates>13.4,52.516666,0</coordinates></Point><TimeStamp><when>1969</when></TimeStamp></Placemark><Placemark><address>Wien</address><description></description><name>Gutes Glück bei Goethe</name><Point><coordinates>16.372076,48.20849,0</coordinates></Point><TimeStamp><when>1969</when></TimeStamp></Placemark><Placemark><address>Stuttgart</address><description></description><name>Schriften zur Morphologie ; 2</name><Point><coordinates>9.177017,48.782326,0</coordinates></Point><TimeStamp><when>1969</when></TimeStamp></Placemark><Placemark><address>Praha</address><description></description><name>The poet and the scientist</name><Point><coordinates>14.424132,50.087837,0</coordinates></Point><TimeStamp><when>1968</when></TimeStamp></Placemark><Placemark><address>Berlin</address><description></description><name>Singspiele</name><Point><coordinates>13.4,52.516666,0</coordinates></Point><TimeStamp><when>1968</when></TimeStamp></Placemark><Placemark><address>New York</address><description></description><name>Italian journey, 1786-1788</name><Point><coordinates>-74.005974,40.714268,0</coordinates></Point><TimeStamp><when>1968</when></TimeStamp></Placemark><Placemark><address>Weimar</address><description></description><name>Die Schriften der Jahre 1788 - 1819</name><Point><coordinates>11.316667,50.983334,0</coordinates></Point><TimeStamp><when>1968</when></TimeStamp></Placemark><Placemark><address>Berlin</address><description></description><name>Januar - Dezember 1774</name><Point><coordinates>13.4,52.516666,0</coordinates></Point><TimeStamp><when>1968</when></TimeStamp></Placemark><Placemark><address>Leipzig</address><description></description><name>Nr. 1 - 271. Nachitalienische Zeichnungen 1788 bis 1829. Antike, Porträt,Figurales, Architektur, Theater</name><Point><coordinates>12.371292,51.33962,0</coordinates></Point><TimeStamp><when>1968</when></TimeStamp></Placemark><Placemark><address>Zürich</address><description></description><name>Lexikon der Goethe-Zitate</name><Point><coordinates>8.55,47.366665,0</coordinates></Point><TimeStamp><when>1968</when></TimeStamp></Placemark><Placemark><address>Tallinn</address><description></description><name>Faust</name><Point><coordinates>24.753529,59.43696,0</coordinates></Point><TimeStamp><when>1967</when></TimeStamp></Placemark><Placemark><address>Hamburg</address><description></description><name>Briefe der Jahre 1821 - 1832</name><Point><coordinates>10.0,53.55,0</coordinates></Point><TimeStamp><when>1967</when></TimeStamp></Placemark><Placemark><address>Hamburg</address><description></description><name>Schriften zur Kunst. Schriften zur Literatur. Maximen und Reflexionen</name><Point><coordinates>10.0,53.55,0</coordinates></Point><TimeStamp><when>1967</when></TimeStamp></Placemark><Placemark><address>Leipzig</address><description></description><name>Nr. 1 - 264. Die naturwissenschaftlichen Zeichnungen mit Ausnahme derFarbenlehre</name><Point><coordinates>12.371292,51.33962,0</coordinates></Point><TimeStamp><when>1967</when></TimeStamp></Placemark><Placemark><address>Berlin</address><description></description><name>Gedichte. Nachlese und Nachlaß</name><Point><coordinates>13.4,52.516666,0</coordinates></Point><TimeStamp><when>1966</when></TimeStamp></Placemark><Placemark><address>Leipzig</address><description></description><name>Nr. 1 - 348. Nachitalienische Landschaften</name><Point><coordinates>12.371292,51.33962,0</coordinates></Point><TimeStamp><when>1966</when></TimeStamp></Placemark><Placemark><address>Moskva</address><description></description><name>Lirika</name><Point><coordinates>37.615555,55.752224,0</coordinates></Point><TimeStamp><when>1966</when></TimeStamp></Placemark><Placemark><address>Hamburg</address><description></description><name>Materialien. Register</name><Point><coordinates>10.0,53.55,0</coordinates></Point><TimeStamp><when>1966</when></TimeStamp></Placemark><Placemark><address>Berlin</address><description></description><name>1777 - 1785</name><Point><coordinates>13.4,52.516666,0</coordinates></Point><TimeStamp><when>1966</when></TimeStamp></Placemark><Placemark><address>Berlin</address><description></description><name>September 1772 - Dezember 1773</name><Point><coordinates>13.4,52.516666,0</coordinates></Point><TimeStamp><when>1966</when></TimeStamp></Placemark><Placemark><address>Zürich</address><description></description><name>Epen. West-östlicher Divan. Theatergedichte</name><Point><coordinates>8.55,47.366665,0</coordinates></Point><TimeStamp><when>1966</when></TimeStamp></Placemark><Placemark><address>London</address><description></description><name>Ironhand</name><Point><coordinates>-0.12553275,51.508415,0</coordinates></Point><TimeStamp><when>1965</when></TimeStamp></Placemark><Placemark><address>Berlin</address><description></description><name>West-östlicher Divan</name><Point><coordinates>13.4,52.516666,0</coordinates></Point><TimeStamp><when>1965</when></TimeStamp></Placemark><Placemark><address>Berlin</address><description></description><name>Gedichte</name><Point><coordinates>13.4,52.516666,0</coordinates></Point><TimeStamp><when>1965</when></TimeStamp></Placemark><Placemark><address>Zürich</address><description></description><name>Goethes Gespräche. Eine Sammlung zeitgenössischer Berichte aus seinemUmgang</name><Point><coordinates>8.55,47.366665,0</coordinates></Point><TimeStamp><when>1965</when></TimeStamp></Placemark><Placemark><address>Berlin</address><description></description><name>Faust</name><Point><coordinates>13.4,52.516666,0</coordinates></Point><TimeStamp><when>1965</when></TimeStamp></Placemark><Placemark><address>Leipzig</address><description></description><name>Nr. 1 - 271. Italienische Reise 1786 bis 1788 ; Antiken- undAnatomiestudien ; Architektur und Perspektive</name><Point><coordinates>12.371292,51.33962,0</coordinates></Point><TimeStamp><when>1965</when></TimeStamp></Placemark><Placemark><address>Berlin</address><description></description><name>1749 - 1776</name><Point><coordinates>13.4,52.516666,0</coordinates></Point><TimeStamp><when>1965</when></TimeStamp></Placemark><Placemark><address>Berlin</address><description></description><name>Goethe. Begegnungen und Gespräche</name><Point><coordinates>13.4,52.516666,0</coordinates></Point><TimeStamp><when>1965</when></TimeStamp></Placemark><Placemark><address>Tübingen</address><description></description><name>Kommentar</name><Point><coordinates>9.052219,48.52266,0</coordinates></Point><TimeStamp><when>1965</when></TimeStamp></Placemark><Placemark><address>Tübingen</address><description></description><name>Text</name><Point><coordinates>9.052219,48.52266,0</coordinates></Point><TimeStamp><when>1965</when></TimeStamp></Placemark><Placemark><address>Tübingen</address><description></description><name>West-östlicher Divan. Kritische Ausgabe der Gedichte</name><Point><coordinates>9.052219,48.52266,0</coordinates></Point><TimeStamp><when>1965</when></TimeStamp></Placemark><Placemark><address>Hamburg</address><description></description><name>Briefe der Jahre 1805 - 1821</name><Point><coordinates>10.0,53.55,0</coordinates></Point><TimeStamp><when>1965</when></TimeStamp></Placemark><Placemark><address>Berlin</address><description></description><name>Tag- und Jahreshefte</name><Point><coordinates>13.4,52.516666,0</coordinates></Point><TimeStamp><when>1964</when></TimeStamp></Placemark><Placemark><address>Berlin</address><description></description><name>Kleine Dramen. (1791 - 1815)</name><Point><coordinates>13.4,52.516666,0</coordinates></Point><TimeStamp><when>1964</when></TimeStamp></Placemark><Placemark><address>Berlin</address><description></description><name>Kleine Dramen. (1767 - 1788)</name><Point><coordinates>13.4,52.516666,0</coordinates></Point><TimeStamp><when>1964</when></TimeStamp></Placemark><Placemark><address>Zürich</address><description></description><name>Tagebücher</name><Point><coordinates>8.55,47.366665,0</coordinates></Point><TimeStamp><when>1964</when></TimeStamp></Placemark><Placemark><address>Hamburg</address><description></description><name>Briefe der Jahre 1786 - 1805</name><Point><coordinates>10.0,53.55,0</coordinates></Point><TimeStamp><when>1964</when></TimeStamp></Placemark><Placemark><address>Weimar</address><description></description><name>Aufsätze, Fragmente, Studien zur Morphologie</name><Point><coordinates>11.316667,50.983334,0</coordinates></Point><TimeStamp><when>1964</when></TimeStamp></Placemark><Placemark><address>Hamburg</address><description></description><name>Sachregister</name><Point><coordinates>10.0,53.55,0</coordinates></Point><TimeStamp><when>1964</when></TimeStamp></Placemark><Placemark><address>Zürich</address><description></description><name>Briefwechsel mit Friedrich Schiller</name><Point><coordinates>8.55,47.366665,0</coordinates></Point><TimeStamp><when>1964</when></TimeStamp></Placemark><Placemark><address>Stuttgart</address><description></description><name>Schriften zur Farbenlehre ; 2</name><Point><coordinates>9.177017,48.782326,0</coordinates></Point><TimeStamp><when>1963</when></TimeStamp></Placemark><Placemark><address>Berlin</address><description></description><name>Wilhelm Meisters Wanderjahre</name><Point><coordinates>13.4,52.516666,0</coordinates></Point><TimeStamp><when>1963</when></TimeStamp></Placemark><Placemark><address>Berlin</address><description></description><name>Die Wahlverwandtschaften</name><Point><coordinates>13.4,52.516666,0</coordinates></Point><TimeStamp><when>1963</when></TimeStamp></Placemark><Placemark><address>Berlin</address><description></description><name>Götz von Berlichingen</name><Point><coordinates>13.4,52.516666,0</coordinates></Point><TimeStamp><when>1963</when></TimeStamp></Placemark><Placemark><address>Berlin</address><description></description><name>Überlieferung, Varianten und Paralipomena</name><Point><coordinates>13.4,52.516666,0</coordinates></Point><TimeStamp><when>1963</when></TimeStamp></Placemark><Placemark><address>Berlin</address><description></description><name>Überlieferung, Varianten und Paralipomena</name><Point><coordinates>13.4,52.516666,0</coordinates></Point><TimeStamp><when>1963</when></TimeStamp></Placemark><Placemark><address>Berlin</address><description></description><name>Text</name><Point><coordinates>13.4,52.516666,0</coordinates></Point><TimeStamp><when>1963</when></TimeStamp></Placemark><Placemark><address>Stuttgart</address><description></description><name>Schriften. Übertragungen</name><Point><coordinates>9.177017,48.782326,0</coordinates></Point><TimeStamp><when>1963</when></TimeStamp></Placemark><Placemark><address>Hamburg</address><description></description><name>Goethes Faust. Der Tragödie erster und zweiter Teil ; Urfaust</name><Point><coordinates>10.0,53.55,0</coordinates></Point><TimeStamp><when>1963</when></TimeStamp></Placemark><Placemark><address>München</address><description></description><name>Schriften zur Botanik und Wissenschaftslehre</name><Point><coordinates>11.575491,48.137432,0</coordinates></Point><TimeStamp><when>1963</when></TimeStamp></Placemark><Placemark><address>Leipzig</address><description></description><name>Nr. 1 - 390. Die Zeichnungen zur Farbenlehre</name><Point><coordinates>12.371292,51.33962,0</coordinates></Point><TimeStamp><when>1963</when></TimeStamp></Placemark><Placemark><address>München</address><description></description><name>Tagebücher 2. 1810 - 1832</name><Point><coordinates>11.575491,48.137432,0</coordinates></Point><TimeStamp><when>1963</when></TimeStamp></Placemark><Placemark><address>München</address><description></description><name>Tagebücher 1. 1775 - 1809</name><Point><coordinates>11.575491,48.137432,0</coordinates></Point><TimeStamp><when>1963</when></TimeStamp></Placemark><Placemark><address>Hamburg</address><description></description><name>Schriften zur Kunst. Schriften zur Literatur. Maximen und Reflexionen</name><Point><coordinates>10.0,53.55,0</coordinates></Point><TimeStamp><when>1963</when></TimeStamp></Placemark><Placemark><address>Berlin</address><description></description><name>April 1770 - September 1772</name><Point><coordinates>13.4,52.516666,0</coordinates></Point><TimeStamp><when>1963</when></TimeStamp></Placemark><Placemark><address>Berlin</address><description></description><name>August 1749 - März 1770</name><Point><coordinates>13.4,52.516666,0</coordinates></Point><TimeStamp><when>1963</when></TimeStamp></Placemark><Placemark><address>Berlin</address><description></description><name>Der junge Goethe. In fünf Bänden</name><Point><coordinates>13.4,52.516666,0</coordinates></Point><TimeStamp><when>1963</when></TimeStamp></Placemark><Placemark><address>Stuttgart</address><description></description><name>Übertragungen</name><Point><coordinates>9.177017,48.782326,0</coordinates></Point><TimeStamp><when>1963</when></TimeStamp></Placemark><Placemark><address>Lund</address><description></description><name>Faust. Tragöödia teine osa</name><Point><coordinates>-0.12553275,51.508415,0</coordinates></Point><TimeStamp><when>1962</when></TimeStamp></Placemark><Placemark><address>Lund</address><description></description><name>Faust</name><Point><coordinates>-0.12553275,51.508415,0</coordinates></Point><TimeStamp><when>1962</when></TimeStamp></Placemark><Placemark><address>Moskva</address><description></description><name>Faust. Tragedija</name><Point><coordinates>37.615555,55.752224,0</coordinates></Point><TimeStamp><when>1962</when></TimeStamp></Placemark><Placemark><address>Berlin</address><description></description><name>Briefe aus der Schweiz 1779</name><Point><coordinates>13.4,52.516666,0</coordinates></Point><TimeStamp><when>1962</when></TimeStamp></Placemark><Placemark><address>Berlin</address><description></description><name>Wilhelm Meisters Lehrjahre</name><Point><coordinates>13.4,52.516666,0</coordinates></Point><TimeStamp><when>1962</when></TimeStamp></Placemark><Placemark><address>Stuttgart</address><description></description><name>Schriften. Schriften zur Kunst 2</name><Point><coordinates>9.177017,48.782326,0</coordinates></Point><TimeStamp><when>1962</when></TimeStamp></Placemark><Placemark><address>Zürich</address><description></description><name>Schriften und Abhandlungen</name><Point><coordinates>8.55,47.366665,0</coordinates></Point><TimeStamp><when>1962</when></TimeStamp></Placemark><Placemark><address>Zürich</address><description></description><name>Reisen</name><Point><coordinates>8.55,47.366665,0</coordinates></Point><TimeStamp><when>1962</when></TimeStamp></Placemark><Placemark><address>Zürich</address><description></description><name>Dichtung und Wahrheit</name><Point><coordinates>8.55,47.366665,0</coordinates></Point><TimeStamp><when>1962</when></TimeStamp></Placemark><Placemark><address>Zürich</address><description></description><name>Romane, Novellen, Epen</name><Point><coordinates>8.55,47.366665,0</coordinates></Point><TimeStamp><when>1962</when></TimeStamp></Placemark><Placemark><address>Zürich</address><description></description><name>Wilhelm Meisters Lehrjahre</name><Point><coordinates>8.55,47.366665,0</coordinates></Point><TimeStamp><when>1962</when></TimeStamp></Placemark><Placemark><address>Zürich</address><description></description><name>Dramen</name><Point><coordinates>8.55,47.366665,0</coordinates></Point><TimeStamp><when>1962</when></TimeStamp></Placemark><Placemark><address>Zürich</address><description></description><name>Gedichte aus dem Nachlass</name><Point><coordinates>8.55,47.366665,0</coordinates></Point><TimeStamp><when>1962</when></TimeStamp></Placemark><Placemark><address>München</address><description></description><name>Natur. Schriften, Gedanken, Briefe, Gespräche</name><Point><coordinates>11.575491,48.137432,0</coordinates></Point><TimeStamp><when>1962</when></TimeStamp></Placemark><Placemark><address>Hamburg</address><description></description><name>Briefe der Jahre 1764 - 1786</name><Point><coordinates>10.0,53.55,0</coordinates></Point><TimeStamp><when>1962</when></TimeStamp></Placemark>